UNITID,OPEID,OPEID6,INSTNM,CITY,STABBR,ZIP,latitude,longitude
100654,100200,1002,Alabama A & M University,Normal,AL,35762,34.783368,-86.568502
100663,105200,1052,University of Alabama at Birmingham,Birmingham,AL,35294-0110,33.50223,-86.80917
100690,2503400,25034,Amridge University,Montgomery,AL,36117-3553,32.362609,-86.17401
100706,105500,1055,University of Alabama in Huntsville,Huntsville,AL,35899,34.722818,-86.63842
100724,100500,1005,Alabama State University,Montgomery,AL,36104-0271,32.364317,-86.295677
100751,105100,1051,The University of Alabama,Tuscaloosa,AL,35487-0166,33.2144,-87.545766
100760,100700,1007,Central Alabama Community College,Alexander City,AL,35010,32.924429,-85.94653
100812,100800,1008,Athens State University,Athens,AL,35611,34.805625,-86.96514
100830,831000,8310,Auburn University at Montgomery,Montgomery,AL,36117-3596,32.369939,-86.177351
100858,100900,1009,Auburn University,Auburn,AL,36849,32.604685,-85.482782
100937,101200,1012,Birmingham Southern College,Birmingham,AL,35254,33.515453,-86.853636
101028,1218200,12182,Chattahoochee Valley Community College,Phenix City,AL,36869,32.42391,-85.031485
101073,1055400,10554,Concordia College Alabama,Selma,AL,36701,32.42443,-87.023531
101116,1303906,13039,South University-Montgomery,Montgomery,AL,36116,32.342684,-86.216488
101143,101500,1015,Enterprise State Community College,Enterprise,AL,36330-1300,31.297496,-85.836956
101161,106000,1060,James H Faulkner State Community College,Bay Minette,AL,36507-2698,30.852045,-87.779758
101189,100300,1003,Faulkner University,Montgomery,AL,36109-3390,32.384181,-86.21641
101240,101700,1017,Gadsden State Community College,Gadsden,AL,35903,33.991866,-85.991299
101277,4187200,41872,New Beginning College of Cosmetology,Albertville,AL,35951,34.27871,-86.196931
101286,101800,1018,George C Wallace State Community College-Dothan,Dothan,AL,36303-9234,31.316086,-85.46355
101295,787100,7871,George C Wallace State Community College-Hanceville,Hanceville,AL,35077-2000,34.07341,-86.781745
101301,569900,5699,George C Wallace State Community College-Selma,Selma,AL,36703-2808,32.445611,-87.01324
101365,962107,9621,Herzing University-Birmingham,Birmingham,AL,35209,33.468105,-86.832299
101435,101900,1019,Huntingdon College,Montgomery,AL,36106-2148,32.350939,-86.285313
101453,2199700,21997,Heritage Christian University,Florence,AL,35630-9977,34.859089,-87.662062
101462,526000,5260,J F Drake State Community and Technical College,Huntsville,AL,35811,34.772116,-86.573817
101480,102000,1020,Jacksonville State University,Jacksonville,AL,36265,33.822128,-85.766644
101499,102100,1021,Jefferson Davis Community College,Brewton,AL,36426,31.101995,-87.085829
101505,102200,1022,Jefferson State Community College,Birmingham,AL,35215-3098,33.652439,-86.707387
101514,101300,1013,John C Calhoun State Community College,Tanner,AL,35671,34.65428,-86.949131
101541,102300,1023,Judson College,Marion,AL,36756,32.630526,-87.316127
101569,105900,1059,Lawson State Community College-Birmingham Campus,Birmingham,AL,35221-1717,33.451673,-86.890234
101587,102400,1024,University of West Alabama,Livingston,AL,35470,32.59244,-88.186077
101602,898800,8988,Lurleen B Wallace Community College,Andalusia,AL,36420-1418,31.322947,-86.452262
101648,102600,1026,Marion Military Institute,Marion,AL,36756-3207,32.622359,-87.317998
101675,102800,1028,Miles College,Fairfield,AL,35064-2621,33.481306,-86.908605
101693,102900,1029,University of Mobile,Mobile,AL,36613-2842,30.793247,-88.128934
101709,100400,1004,University of Montevallo,Montevallo,AL,35115-6000,33.10625,-86.865099
101736,569700,5697,Northwest-Shoals Community College,Muscle Shoals,AL,35661,34.739567,-87.67733
101879,101600,1016,University of North Alabama,Florence,AL,35632-0001,34.80658,-87.680999
101897,103100,1031,Northeast Alabama Community College,Rainsville,AL,35986,34.545471,-85.911664
101912,103300,1033,Oakwood University,Huntsville,AL,35896,34.756628,-86.661628
101949,103400,1034,Alabama Southern Community College,Monroeville,AL,36460,31.488925,-87.326352
101958,2296000,22960,Prince Institute-Southeast,Elmhurst,IL,60126,41.928952,-87.962922
101994,569200,5692,Reid State Technical College,Evergreen,AL,36401,31.46071,-86.964486
102030,103000,1030,Bishop State Community College,Mobile,AL,36603-5898,30.693972,-88.056982
102049,103600,1036,Samford University,Birmingham,AL,35229-2240,33.464578,-86.790932
102058,4067300,40673,Selma University,Selma,AL,36701,32.420358,-87.033826
102067,569100,5691,Shelton State Community College,Tuscaloosa,AL,35405-8522,33.120531,-87.56148
102076,103800,1038,Snead State Community College,Boaz,AL,35957-0734,34.201247,-86.169479
102094,105700,1057,University of South Alabama,Mobile,AL,36688-0002,30.695081,-88.18189
102234,104100,1041,Spring Hill College,Mobile,AL,36608-1791,30.694751,-88.138199
102261,2270400,22704,Southeastern Bible College,Birmingham,AL,35244-2083,33.378935,-86.749045
102270,104400,1044,Stillman College,Tuscaloosa,AL,35401,33.199228,-87.585242
102298,104600,1046,Talladega College,Talladega,AL,35160,33.434258,-86.113675
102313,573400,5734,H Councill Trenholm State Community College,Montgomery,AL,36108-3199,32.350109,-86.343057
102368,104700,1047,Troy University,Troy,AL,36082-0001,31.800128,-85.950191
102377,105000,1050,Tuskegee University,Tuskegee,AL,36088-1920,32.431021,-85.710315
102395,2170600,21706,United States Sports Academy,Daphne,AL,36526-7055,30.639329,-87.91163
102429,573300,5733,Bevill State Community College,Jasper,AL,35501,33.835785,-87.265034
102553,1146200,11462,University of Alaska Anchorage,Anchorage,AK,99508,61.189554,-149.826135
102580,884300,8843,Alaska Bible College,Palmer,AK,99645,61.59843,-149.111341
102614,106300,1063,University of Alaska Fairbanks,Fairbanks,AK,99775-7500,64.856483,-147.822943
102632,106500,1065,University of Alaska Southeast,Juneau,AK,99801-8697,58.38427,-134.636346
102669,106100,1061,Alaska Pacific University,Anchorage,AK,99508,61.191235,-149.804242
102711,3160300,31603,AVTEC-Alaska's Institute of Technology,Seward,AK,99664-0889,60.110727,-149.444573
102845,2576900,25769,Charter College-Anchorage,Anchorage,AK,99508,61.195786,-149.840178
103501,2541000,25410,Alaska Career College,Anchorage,AK,99507-1033,61.181443,-149.856954
103644,2295000,22950,Everest College-Phoenix,Phoenix,AZ,85021-1641,33.580985,-112.113845
103723,2160305,21603,Collins College,Phoenix,AZ,85040,33.40334,-111.98646
103732,2173204,21732,Empire Beauty School-Paradise Valley,Phoenix,AZ,85032,33.602593,-111.976357
103741,966403,9664,Empire Beauty School-Tucson,Tucson,AZ,85716,32.235657,-110.927187
103778,107000,1070,Thunderbird School of Global Management,Glendale,AZ,85306-6000,33.620887,-112.180861
103787,2199900,21999,American Indian College Inc,Phoenix,AZ,85021,33.577738,-112.092247
103811,2317800,23178,American Institute of Technology,Phoenix,AZ,85043-4729,33.442262,-112.175304
103893,2100600,21006,Carrington College-Phoenix,Phoenix,AZ,85051-4063,33.560821,-112.115546
103909,2100611,21006,Carrington College-Mesa,Mesa,AZ,85210,33.39207,-111.855281
103927,2100607,21006,Carrington College-Tucson,Tucson,AZ,85745,32.224,-110.982961
103945,3120300,31203,CollegeAmerica-Flagstaff,Flagstaff,AZ,86001,35.194607,-111.65739
103954,886400,8864,Arizona Academy of Beauty-East,Tucson,AZ,85712,32.237253,-110.872305
103963,1084700,10847,Arizona Automotive Institute,Glendale,AZ,85301-3579,33.537249,-112.157344
104090,2218800,22188,Brookline College-Phoenix,Phoenix,AZ,85021,33.525384,-112.15007
104151,108100,1081,Arizona State University-Tempe,Tempe,AZ,85287,33.422247,-111.934629
104160,107100,1071,Arizona Western College,Yuma,AZ,85365-8834,32.689306,-114.495968
104179,108300,1083,University of Arizona,Tucson,AZ,85721-0066,32.232071,-110.950769
104188,2491500,24915,Southwest University of Visual Arts-Tucson,Tucson,AZ,85716,32.252384,-110.927321
104346,728300,7283,Central Arizona College,Coolidge,AZ,85128-9030,32.957092,-111.652501
104364,4051325,40513,Brown Mackie College-Tucson,Tucson,AZ,85712,32.236736,-110.895086
104391,2280500,22805,Charles of Italy Beauty College,Lake Havasu City,AZ,86403,34.475275,-114.328134
104425,107200,1072,Cochise County Community College District,Douglas,AZ,85607-6190,31.365757,-109.690422
104434,1054207,10542,Empire Beauty School-Flagstaff,Flagstaff,AZ,86004,35.197151,-111.625936
104443,1054208,10542,Empire Beauty School-Chandler,Chandler,AZ,85224,33.347586,-111.860423
104504,2582700,25827,Cortiva Institute-Tucson,Tucson,AZ,85710,32.21901,-110.856785
104568,1085800,10858,Avalon School of Cosmetology-Mesa,Mesa,AZ,85210,33.376583,-111.858305
104577,107300,1073,Eastern Arizona College,Thatcher,AZ,85552-0769,32.840719,-109.761664
104586,147902,1479,Embry-Riddle Aeronautical University-Prescott,Prescott,AZ,86301-3720,34.615678,-112.452285
104665,2533200,25332,Frank Lloyd Wright School of Architecture,Scottsdale,AZ,85261-4430,33.60715,-111.846477
104708,107600,1076,Glendale Community College,Glendale,AZ,85302,33.567483,-112.188334
104717,107400,1074,Grand Canyon University,Phoenix,AZ,85017,33.512172,-112.129917
104911,1218400,12184,International Academy of Hair Design,Tempe,AZ,85282-6730,33.38145,-111.940071
105145,830300,8303,GateWay Community College,Phoenix,AZ,85034,33.4495,-111.996527
105154,107700,1077,Mesa Community College,Mesa,AZ,85202,33.391256,-111.871494
105163,732990,7329,ITT Technical Institute-Tucson,Tucson,AZ,85704-5829,32.297261,-110.997501
105172,732911,7329,ITT Technical Institute-Tempe,Tempe,AZ,85282,33.380355,-111.969169
105206,1186400,11864,Mohave Community College,Kingman,AZ,86409-1238,35.270737,-114.030244
105215,2100500,21005,Universal Technical Institute of Arizona Inc-Motorcycle Mechanics Institute Division,Phoenix,AZ,85027,33.684428,-112.121336
105297,824600,8246,Dine College,Tsaile,AZ,86556,36.293328,-109.21684
105330,108200,1082,Northern Arizona University,Flagstaff,AZ,86011-4092,35.180095,-111.657653
105349,1186200,11862,Northland Pioneer College,Holbrook,AZ,86025-0610,34.922221,-110.1316
105367,193701,1937,Ottawa University-Phoenix,Phoenix,AZ,85021,33.57172,-112.113301
105428,107800,1078,Phoenix College,Phoenix,AZ,85013,33.481361,-112.088293
105482,2623800,26238,Cortiva Institute-Scottsdale,Scottsdale,AZ,85257,33.466554,-111.908433
105525,726600,7266,Pima Community College,Tucson,AZ,85709-1275,32.221737,-110.887033
105534,2217100,22171,Pima Medical Institute-Tucson,Tucson,AZ,85716,32.250448,-110.921306
105543,2217103,22171,Pima Medical Institute-Albuquerque,Albuquerque,NM,87110,35.10488,-106.594381
105589,2065300,20653,Prescott College,Prescott,AZ,86301,34.5445,-112.476509
105659,1168900,11689,Refrigeration School Inc,Phoenix,AZ,85034-1816,33.448692,-111.989357
105668,2177500,21775,Rio Salado College,Tempe,AZ,85281,33.413138,-111.975201
105677,2113800,21138,Roberto-Venn School of Luthiery,Phoenix,AZ,85007,33.45489,-112.086161
105701,3005000,30050,Hair Academy of Safford,Safford,AZ,85546,32.835302,-109.727696
105747,830400,8304,Scottsdale Community College,Scottsdale,AZ,85256,33.509489,-111.887298
105792,2146600,21466,South Mountain Community College,Phoenix,AZ,85042,33.381001,-112.057515
105899,711300,7113,Arizona Christian University,Phoenix,AZ,85032-7097,33.595117,-112.026211
105987,446700,4467,Tucson College,Tucson,AZ,85711,32.22205,-110.883181
106041,822100,8221,Universal Technical Institute of Arizona Inc,Avondale,AZ,85323,33.453533,-112.289693
106102,2171500,21715,Western International University,Tempe,AZ,85282,33.403625,-111.964182
106111,945915,9459,Empire Beauty School-NW Phoenix,Phoenix,AZ,85051,33.538093,-112.118168
106148,107900,1079,Yavapai College,Prescott,AZ,86301,34.547512,-112.454156
106245,110100,1101,University of Arkansas at Little Rock,Little Rock,AR,72204,34.726644,-92.341835
106263,110900,1109,University of Arkansas for Medical Sciences,Little Rock,AR,72205-7199,34.749718,-92.320945
106281,3065100,30651,ABC Beauty College Inc,Arkadelphia,AR,71923,34.12018,-93.080831
106306,108700,1087,Arkansas Baptist College,Little Rock,AR,72202-6068,34.734751,-92.290555
106315,3005100,30051,Arkansas Beauty School-Little Rock,Little Rock,AR,72209,34.669071,-92.334814
106324,3997300,39973,Arkansas Beauty College,Russellville,AR,72801,35.278622,-93.13522
106342,108800,1088,Lyon College,Batesville,AR,72501,35.778934,-91.628115
106351,3023400,30234,Arkansas College of Barbering and Hair Design,North Little Rock,AR,72114,34.753621,-92.266336
106360,2363500,23635,Arthur's Beauty College Inc-Fort Smith,Fort Smith,AR,72901-3342,35.379955,-94.410967
106397,110800,1108,University of Arkansas,Fayetteville,AR,72701,36.06153,-94.178214
106412,108600,1086,University of Arkansas at Pine Bluff,Pine Bluff,AR,71601,34.242192,-92.021263
106449,109100,1091,Arkansas State University-Beebe,Beebe,AR,72012-1000,35.074512,-91.896165
106458,109000,1090,Arkansas State University-Main Campus,Jonesboro,AR,72401,35.842779,-90.680478
106467,108900,1089,Arkansas Tech University,Russellville,AR,72801-2222,35.295227,-93.13233
106485,108500,1085,University of Arkansas at Monticello,Monticello,AR,71656,33.589788,-91.812971
106494,2538500,25385,Arthur's Beauty College Inc-Jacksonville,Jacksonville,AR,72076,34.8918,-92.102284
106546,3105200,31052,Baptist Health College-Little Rock,Little Rock,AR,72210-2820,34.713115,-92.40692
106625,2052200,20522,Black River Technical College,Pocahontas,AR,72455,36.239793,-90.951033
106704,109200,1092,University of Central Arkansas,Conway,AR,72035-0001,35.078196,-92.45931
106713,109300,1093,Central Baptist College,Conway,AR,72034,35.084574,-92.444102
106795,2220900,22209,Cossatot Community College of the University of Arkansas,De Queen,AR,71832,34.043389,-94.3673
106810,109500,1095,Crowley's Ridge College,Paragould,AR,72450,36.066239,-90.58482
106829,704400,7044,Crowley's Ridge Technical Institute,Forrest City,AR,72335-0925,35.041908,-90.767807
106883,1226000,12260,East Arkansas Community College,Forrest City,AR,72335-2204,35.039673,-90.767445
106892,2272400,22724,Eastern College of Health Vocations-Little Rock,Little Rock,AR,72205,34.75126,-92.341981
106908,3124900,31249,Imagine-Paul Mitchell Partner School,North Little Rock,AR,72117,34.791306,-92.221304
106980,1210500,12105,National Park Community College,Hot Springs,AR,71913,34.512731,-93.117111
106999,2073500,20735,University of Arkansas Community College-Batesville,Batesville,AR,72503-3350,35.79293,-91.616123
107044,109700,1097,Harding University,Searcy,AR,72143,35.249605,-91.729008
107071,109800,1098,Henderson State University,Arkadelphia,AR,71999-0001,34.127792,-93.060313
107080,109900,1099,Hendrix College,Conway,AR,72032-3080,35.09972,-92.442021
107099,3007100,30071,Hot Springs Beauty College,Hot Springs,AR,71901,34.496287,-93.038381
107123,2330800,23308,Jefferson Regional Medical Center School of Nursing,Pine Bluff,AR,71603,34.187831,-92.018045
107141,110000,1100,John Brown University,Siloam Springs,AR,72761,36.191077,-94.559088
107211,2525800,25258,Lees School of Cosmetology,North  Little Rock,AR,72114-3800,34.781993,-92.296729
107220,2341700,23417,Career Academy of Hair Design,Springdale,AR,72764-7128,36.16757,-94.131834
107293,1074100,10741,Academy of Salon and Spa,Fort Smith,AR,72901,35.380891,-94.416327
107318,2348200,23482,Arkansas State University Mid-South,West Memphis,AR,72301-3829,35.145736,-90.22285
107327,1286000,12860,Arkansas Northeastern College,Blytheville,AR,72316-1109,35.897362,-89.922491
107363,3254300,32543,Margaret's Hair Academy Inc,Monticello,AR,71655,33.629169,-91.7887
107442,2284200,22842,New Tyler Barber College Inc,North Little Rock,AR,72114-4973,34.759076,-92.254108
107460,1226100,12261,North Arkansas College,Harrison,AR,72601-5508,36.220528,-93.087317
107488,2073700,20737,Northwest Technical Institute,Springdale,AR,72764,36.178617,-94.116433
107512,110200,1102,Ouachita Baptist University,Arkadelphia,AR,71998-0001,34.125045,-93.052442
107521,997600,9976,College of the Ouachitas,Malvern,AR,72104-0816,34.378745,-92.821416
107549,2087000,20870,Ozarka College,Melbourne,AR,72556-0010,36.053031,-91.896355
107558,109400,1094,University of the Ozarks,Clarksville,AR,72830,35.477785,-93.467924
107585,524500,5245,University of Arkansas Community College-Morrilton,Morrilton,AR,72110,35.172136,-92.728507
107600,110300,1103,Philander Smith College,Little Rock,AR,72202-3799,34.73666,-92.28242
107619,110400,1104,Phillips Community College of the University of Arkansas,Helena,AR,72342-0785,34.544976,-90.617745
107637,570700,5707,Southeast Arkansas College,Pine Bluff,AR,71603,34.209797,-92.024731
107655,2202400,22024,Professional Cosmetology Education Center,El Dorado,AR,71730-4009,33.215124,-92.663131
107664,2075300,20753,Pulaski Technical College,North Little Rock,AR,72118-3347,34.78243,-92.299729
107725,573200,5732,University of Arkansas Community College-Hope,Hope,AR,71801,33.64791,-93.584528
107743,2111100,21111,Rich Mountain Community College,Mena,AR,71953,34.590793,-94.2197
107789,792100,7921,Paul Mitchell the School-Arkansas,Fayetteville,AR,72703,36.12681,-94.154191
107831,2569600,25696,Searcy Beauty College,Searcy,AR,72143,35.237723,-91.73454
107840,110500,1105,Shorter College,N Little Rock,AR,72114,34.75933,-92.261331
107877,110600,1106,Williams Baptist College,Walnut Ridge,AR,72476,36.126825,-90.939876
107974,2074600,20746,South Arkansas Community College,El Dorado,AR,71731-7010,33.209446,-92.666087
107983,110700,1107,Southern Arkansas University Main Campus,Magnolia,AR,71753,33.291195,-93.235087
107992,773800,7738,Southern Arkansas University Tech,Camden,AR,71701-1906,33.63037,-92.719498
108065,3214300,32143,Velvatex College of Beauty Culture,Little Rock,AR,72202-5452,34.735724,-92.289758
108092,111000,1110,University of Arkansas-Fort Smith,Fort Smith,AR,72913-3649,35.385345,-94.374073
108232,753100,7531,Academy of Art University,San Francisco,CA,94105,37.787748,-122.400686
108250,732971,7329,ITT Technical Institute-Rancho Cordova,Rancho Cordova,CA,95670-6034,38.59172,-121.281506
108269,3288300,32883,Academy of Chinese Culture and Health Sciences,Oakland,CA,94612,37.806662,-122.272733
108348,2342400,23424,The Academy of Radio and TV Broadcasting,Huntington Beach,CA,92647,33.728895,-117.987666
108649,2258600,22586,Avalon School of Cosmetology-Alameda,Alameda,CA,94501,37.764203,-122.243566
108667,672000,6720,College of Alameda,Alameda,CA,94501,37.78239,-122.279261
108807,111100,1111,Allan Hancock College,Santa Maria,CA,93454-6399,34.942979,-120.421486
108852,746501,7465,American Academy of Dramatic Arts-Los Angeles,Los Angeles,CA,90028,34.095315,-118.344097
108861,112000,1120,American Baptist Seminary of the West,Berkeley,CA,94704-3029,37.865252,-122.256149
108870,2222000,22220,American Film Institute Conservatory,Los Angeles,CA,90027-1625,34.10846,-118.309989
108977,1307400,13074,American Beauty College,West Covina,CA,91790,33.884391,-118.125036
109040,2241800,22418,American Career College-Los Angeles,Los Angeles,CA,90004,34.079236,-118.292282
109086,2099200,20992,American Conservatory Theater,San Francisco,CA,94108-5834,37.787326,-122.404945
109208,123200,1232,American River College,Sacramento,CA,95841-4286,38.649734,-121.346012
109350,111300,1113,Antelope Valley College,Lancaster,CA,93536-5426,34.676207,-118.186166
109651,111600,1116,Art Center College of Design,Pasadena,CA,91103,34.170844,-118.186901
109721,902200,9022,Associated Technical College-Los Angeles,Los Angeles,CA,90017-1604,34.055987,-118.27243
109730,2553500,25535,Associated Technical College-San Diego,San Diego,CA,92101,32.715658,-117.158203
109785,111700,1117,Azusa Pacific University,Azusa,CA,91702-7000,34.130865,-117.88795
109819,111800,1118,Bakersfield College,Bakersfield,CA,93305-1299,35.4108,-118.973491
109907,111900,1119,Barstow Community College,Barstow,CA,92311,34.871451,-117.02523
109934,705000,7050,Bellus Academy-National City,National City,CA,91950,32.676762,-117.090235
110060,3266300,32663,Bethesda University,Anaheim,CA,92801,33.842295,-117.941323
110097,112200,1122,Biola University,La Mirada,CA,90639-0001,33.904823,-118.017342
110185,112300,1123,Brooks Institute,Ventura,CA,93001,34.33851,-119.295231
110194,2543400,25434,Brownson Technical School,Anaheim,CA,92805,33.819,-117.906409
110219,716400,7164,Bryan University,Los Angeles,CA,90010,34.061406,-118.302882
110246,807300,8073,Butte College,Oroville,CA,95965-8399,39.649116,-121.644691
110307,2237200,22372,Phillips Graduate Institute,Chatsworth,CA,91311,34.24203,-118.567631
110316,1215400,12154,California Institute of Integral Studies,San Francisco,CA,94103,37.774768,-122.416537
110334,112400,1124,Cabrillo College,Aptos,CA,95003,36.9891,-121.927926
110361,112500,1125,California Baptist University,Riverside,CA,92504-3297,33.928569,-117.42587
110370,112700,1127,California College of the Arts,San Francisco,CA,94107-2247,37.76723,-122.399941
110398,394700,3947,University of California-Hastings College of Law,San Francisco,CA,94102-4978,37.780718,-122.415395
110404,113100,1131,California Institute of Technology,Pasadena,CA,91125,34.139275,-118.12574
110413,113300,1133,California Lutheran University,Thousand Oaks,CA,91360-2787,34.225551,-118.879467
110422,114300,1143,California Polytechnic State University-San Luis Obispo,San Luis Obispo,CA,93407,35.29889,-120.65856
110468,1111700,11117,Alliant International University-San Diego,San Diego,CA,92131,32.897056,-117.094398
110486,799300,7993,California State University-Bakersfield,Bakersfield,CA,93311-1099,35.350005,-119.104711
110495,115700,1157,California State University-Stanislaus,Turlock,CA,95382-0299,37.52577,-120.852511
110510,114200,1142,California State University-San Bernardino,San Bernardino,CA,92407-2397,34.182987,-117.322508
110529,114400,1144,California State Polytechnic University-Pomona,Pomona,CA,91768,34.054273,-117.819019
110538,114600,1146,California State University-Chico,Chico,CA,95929-0150,39.728003,-121.846333
110547,114100,1141,California State University-Dominguez Hills,Carson,CA,90747-0005,33.86524,-118.259316
110556,114700,1147,California State University-Fresno,Fresno,CA,93740,36.814477,-119.748258
110565,113700,1137,California State University-Fullerton,Fullerton,CA,92831-3599,33.883627,-117.885349
110574,113800,1138,California State University-East Bay,Hayward,CA,94542,37.65707,-122.058073
110583,113900,1139,California State University-Long Beach,Long Beach,CA,90840-0115,33.782752,-118.1123
110592,114000,1140,California State University-Los Angeles,Los Angeles,CA,90032,34.066927,-118.168965
110608,115300,1153,California State University-Northridge,Northridge,CA,91330,34.23671,-118.526817
110617,115000,1150,California State University-Sacramento,Sacramento,CA,95819-2694,38.55745,-121.42194
110635,131200,1312,University of California-Berkeley,Berkeley,CA,94720,37.871969,-122.260423
110644,131300,1313,University of California-Davis,Davis,CA,95616-8678,38.539895,-121.751958
110653,131400,1314,University of California-Irvine,Irvine,CA,92697,33.648434,-117.841248
110662,131500,1315,University of California-Los Angeles,Los Angeles,CA,90095-1405,34.068892,-118.443901
110671,131600,1316,University of California-Riverside,Riverside,CA,92521,33.97588,-117.331098
110680,131700,1317,University of California-San Diego,La Jolla,CA,92093,32.876598,-117.237793
110699,131900,1319,University of California-San Francisco,San Francisco,CA,94143-0244,37.762736,-122.458049
110705,132000,1320,University of California-Santa Barbara,Santa Barbara,CA,93106,34.416281,-119.846404
110714,132100,1321,University of California-Santa Cruz,Santa Cruz,CA,95064-1011,36.997258,-122.067993
110778,2267600,22676,Sofia University,Palo Alto,CA,94303,37.430325,-122.10866
110875,2065700,20657,California Beauty School,Modesto,CA,95354,37.645217,-120.99689
110918,884400,8844,California Christian College,Fresno,CA,93727,36.75031,-119.711208
111009,2220200,22202,Le Cordon Bleu College of Culinary Arts-San Francisco,San Francisco,CA,94103,37.765415,-122.402643
111054,1186500,11865,California Hair Design Academy,La Mesa,CA,91941-5055,32.765221,-117.024261
111081,113200,1132,California Institute of the Arts,Valencia,CA,91355-2397,34.393337,-118.567303
111188,113400,1134,The California Maritime Academy,Vallejo,CA,94590,38.069061,-122.231551
111391,1310300,13103,California Western School of Law,San Diego,CA,92101-3046,32.72194,-117.162597
111434,697300,6973,Canada College,Redwood City,CA,94061-1099,37.447365,-122.265549
111461,890300,8903,College of the Canyons,Santa Clarita,CA,91355-1899,34.403121,-118.569524
111513,2125000,21250,Career Academy of Beauty,Garden Grove,CA,92845,33.781018,-118.031697
111638,673100,6731,Casa Loma College-Van Nuys,Van Nuys,CA,91405,34.195438,-118.448335
111708,2332809,23328,CET-San Diego,San Diego,CA,92102,32.711715,-117.122496
111717,2332800,23328,CET-Sobrato,San Jose,CA,95110,37.322723,-121.88698
111726,2332810,23328,CET-El Centro,El Centro,CA,92243,32.790908,-115.549079
111744,2332814,23328,CET-San Bernardino,San Bernardino,CA,92408,34.075136,-117.268738
111762,2332819,23328,CET-Watsonville,Watsonville,CA,95076,36.931833,-121.767991
111799,2332813,23328,CET-Salinas,Salinas,CA,93901,36.671635,-121.652791
111887,116100,1161,Cerritos College,Norwalk,CA,90650-6298,33.88584,-118.097263
111896,1011100,10111,Cerro Coso Community College,Ridgecrest,CA,93555-9571,35.567763,-117.667706
111920,116200,1162,Chabot College,Hayward,CA,94545,37.642513,-122.106969
111939,116300,1163,Chaffey College,Rancho Cucamonga,CA,91737-3002,34.14705,-117.573086
111948,116400,1164,Chapman University,Orange,CA,92866,33.793678,-117.851481
111966,1036500,10365,Charles R Drew University of Medicine and Science,Los Angeles,CA,90059,33.925658,-118.242791
112075,2070500,20705,Concordia University-Irvine,Irvine,CA,92612-3203,33.6535,-117.81063
112084,1203100,12031,San Diego Christian College,Santee,CA,92071,32.84281,-116.978151
112127,116500,1165,Church Divinity School of the Pacific,Berkeley,CA,94709-1211,37.876169,-122.261391
112172,116600,1166,Citrus College,Glendora,CA,91741-1899,34.135487,-117.885266
112181,2178700,21787,Citrus Heights Beauty College,Citrus Heights,CA,95610-1410,38.71307,-121.289531
112190,450200,4502,City College of San Francisco,San Francisco,CA,94112-1898,37.725953,-122.451155
112251,116900,1169,Claremont Graduate University,Claremont,CA,91711-6160,34.103778,-117.712394
112260,117000,1170,Claremont McKenna College,Claremont,CA,91711-6400,34.102323,-117.706593
112288,2497300,24973,Milan Institute-Visalia,Visalia,CA,93277,36.27164,-119.312151
112367,2309500,23095,Clovis Adult Education,Clovis,CA,93611,36.836915,-119.69019
112385,2063500,20635,Coastline Community College,Fountain Valley,CA,92708-2597,33.609771,-117.861844
112394,117700,1177,Cogswell College,San Jose,CA,95134,37.413664,-121.940553
112446,729600,7296,Coleman University,San Diego,CA,92123-1506,32.821962,-117.136493
112455,3577300,35773,COBA Academy,Orange,CA,92866,33.788258,-117.85348
112525,2482700,24827,Western University of Health Sciences,Pomona,CA,91766-1854,34.058092,-117.747732
112561,770700,7707,Columbia College,Sonora,CA,95370,38.030361,-120.387603
112570,2110200,21102,Columbia College-Hollywood,Tarzana,CA,91356-1411,34.179596,-118.538394
112686,119701,1197,El Camino College-Compton Center,Compton,CA,90221-5393,33.876665,-118.209186
112826,119000,1190,Contra Costa College,San Pablo,CA,94806-3195,37.968623,-122.342386
113096,753600,7536,Cosumnes River College,Sacramento,CA,95823-5799,38.453836,-121.422971
113111,927200,9272,Crafton Hills College,Yucaipa,CA,92339-1799,34.038513,-117.100826
113193,119200,1192,Cuesta College,San Luis Obispo,CA,93403-8106,35.329859,-120.741624
113218,2111300,21113,Cuyamaca College,El Cajon,CA,92019,32.743072,-116.941044
113236,119300,1193,Cypress College,Cypress,CA,90630-5897,33.827625,-118.023889
113333,448000,4480,De Anza College,Cupertino,CA,95014,37.319176,-122.045365
113397,3467300,34673,Marinello Schools of Beauty-Hemet,Hemet,CA,92545,33.746002,-116.999892
113449,3964400,39644,International School of Beauty Inc,Palm Desert,CA,92260-2740,33.729555,-116.403928
113537,3025600,30256,Dell'Arte International School of Physical Theatre,Blue Lake,CA,95525-0816,40.880871,-123.988878
113573,118200,1182,College of the Desert,Palm Desert,CA,92260,33.732484,-116.38761
113582,2298000,22980,Design Institute of San Diego,San Diego,CA,92121,32.731022,-117.149808
113634,119100,1191,Diablo Valley College,Pleasant Hill,CA,94523,37.968035,-122.069861
113698,119600,1196,Dominican University of California,San Rafael,CA,94901-2298,37.980014,-122.514654
113704,129600,1296,Dominican School of Philosophy & Theology,Berkeley,CA,94708-1816,37.881099,-122.264612
113856,2226000,22260,East Los Angeles College,Monterey Park,CA,91754-6099,34.039205,-118.148384
113908,2086400,20864,Marinello Schools of Beauty-Santa Clara,Santa Clara,CA,95050,37.347964,-121.947773
113980,119700,1197,El Camino Community College District,Torrance,CA,90506,33.885586,-118.326623
114044,2091200,20912,Elegance International,Hollywood,CA,90028-6106,34.062216,-118.338332
114071,1265000,12650,Marinello Schools of Beauty-Burbank,Burbank,CA,91502,34.181902,-118.309749
114080,2221300,22213,Marinello Schools of Beauty-Moreno Valley,Moreno Valley,CA,92553,33.915981,-117.228072
114114,2609000,26090,Emperor's College of Traditional Oriental Medicine,Santa Monica,CA,90403,34.0303,-118.4847
114123,903200,9032,Empire College,Santa Rosa,CA,95403-2126,38.467789,-122.728642
114266,1245200,12452,Evergreen Valley College,San Jose,CA,95135-1598,37.301736,-121.766686
114354,1111200,11112,Fashion Institute of Design & Merchandising-Los Angeles,Los Angeles,CA,90015-1421,34.044209,-118.25993
114390,1111202,11112,Fashion Institute of Design & Merchandising-San Francisco,San Francisco,CA,94108-5805,37.786324,-122.406503
114415,1111203,11112,Fashion Institute of Design & Merchandising-Orange County,Irvine,CA,92614-5610,33.691963,-117.852254
114433,859700,8597,Feather River Community College District,Quincy,CA,95971-9124,39.952395,-120.970877
114460,725300,7253,Federico Beauty Institute,Sacramento,CA,95834,38.64883,-121.497761
114549,2096100,20961,Fielding Graduate University,Santa Barbara,CA,93105-3538,34.42941,-119.717161
114585,3131300,31313,Five Branches University,Santa Cruz,CA,95062,36.964133,-121.998478
114637,720900,7209,Redondo Beach Beauty College,Redondo Beach,CA,90278-3111,33.872914,-118.372315
114716,119900,1199,Foothill College,Los Altos Hills,CA,94022,37.361104,-122.12833
114734,1179200,11792,Franciscan School of Theology,Oceanside,CA,92057,33.23023,-117.319616
114761,2230900,22309,Fredrick and Charles Beauty College,Eureka,CA,95501,40.798811,-124.165778
114789,130700,1307,Fresno City College,Fresno,CA,93741,36.767516,-119.795129
114813,125300,1253,Fresno Pacific University,Fresno,CA,93702-4709,36.725279,-119.731953
114840,120000,1200,Fuller Theological Seminary in California,Pasadena,CA,91182,34.14778,-118.140261
114859,120100,1201,Fullerton College,Fullerton,CA,92832-2095,33.876794,-117.916986
114938,120200,1202,Gavilan College,Gilroy,CA,95020,36.973274,-121.568174
114947,2231900,22319,Gemological Institute of America-Carlsbad,Carlsbad,CA,92008,33.131313,-117.318765
115001,120300,1203,Glendale Community College,Glendale,CA,91208-2894,34.166422,-118.228251
115010,2338500,23385,Glendale Career College,Glendale,CA,91203,34.1497,-118.254231
115083,120500,1205,Golden Gate University-San Francisco,San Francisco,CA,94105-2968,37.789208,-122.398785
115126,120600,1206,Golden West College,Huntington Beach,CA,92647-2710,33.733775,-118.003036
115214,120700,1207,Graduate Theological Union,Berkeley,CA,94709,37.87554,-122.261847
115296,120800,1208,Grossmont College,El Cajon,CA,92020-1799,32.816077,-117.007292
115357,2211000,22110,Salon Success Academy-Riverside,Riverside,CA,92506,33.94297,-117.391021
115393,120900,1209,Hartnell College,Salinas,CA,93901,36.673052,-121.668763
115409,117100,1171,Harvey Mudd College,Claremont,CA,91711,34.106137,-117.710594
115454,723411,7234,Heald College-Rancho Cordova,Rancho Cordova,CA,95670,38.594382,-121.280086
115472,723412,7234,Heald College-Fresno,Fresno,CA,93704,36.822401,-119.795525
115490,723405,7234,Heald College-San Jose,Milpitas,CA,95035-8008,37.410897,-121.893911
115515,723400,7234,Heald College-San Francisco,San Francisco,CA,94103,37.782001,-122.404246
115533,723404,7234,Heald College-Concord,Concord,CA,94520-0522,38.018938,-122.030047
115658,2285100,22851,Hilltop Beauty School,Daly City,CA,94014,37.705545,-122.461674
115728,118300,1183,Holy Names University,Oakland,CA,94619-1699,37.802654,-122.18717
115746,3126800,31268,Pacifica Graduate Institute,Carpinteria,CA,93013,34.420464,-119.580264
115755,114900,1149,Humboldt State University,Arcata,CA,95521-8299,40.8741,-124.0814
115773,121200,1212,Humphreys College-Stockton and Modesto Campuses,Stockton,CA,95207-3896,38.011051,-121.316401
115861,121400,1214,Imperial Valley College,Imperial,CA,92251-0158,32.827563,-115.503903
115931,2128300,21283,Institute for Business and Technology,Santa Clara,CA,95051-1303,37.368642,-121.969541
116226,2520300,25203,Interior Designers Institute,Newport Beach,CA,92660,33.641393,-117.865722
116350,2255400,22554,Toni & Guy Hairdressing Academy-Santa Monica,Santa Monica,CA,90401,34.017466,-118.494898
116439,2539500,25395,Irvine Valley College,Irvine,CA,92618-0301,33.675079,-117.778575
116466,732981,7329,ITT Technical Institute-National City,National City,CA,91950,32.66182,-117.106121
116475,732985,7329,ITT Technical Institute-San Dimas,San Dimas,CA,91773,34.102405,-117.818401
116484,732909,7329,ITT Technical Institute-Orange,Orange,CA,92868,33.77999,-117.896171
116563,1202600,12026,Bellus Academy-El Cajon,El Cajon,CA,92021,32.794827,-116.945728
116712,448400,4484,John F. Kennedy University,Pleasant Hill,CA,94523-4817,37.881794,-122.183972
116846,274100,2741,American Jewish University,Los Angeles,CA,90077-1519,34.128099,-118.471764
117052,130800,1308,Reedley College,Reedley,CA,93654,36.605968,-119.45993
117104,2270600,22706,Life Pacific College,San Dimas,CA,91773-3298,34.089421,-117.830997
117113,2179947,21799,Argosy University-The Art Institute of California-San Diego,San Diego,CA,92108-4423,32.778278,-117.155395
117140,121600,1216,University of La Verne,La Verne,CA,91750-4401,34.10086,-117.772634
117168,2330500,23305,Laguna College of Art and Design,Laguna Beach,CA,92651,33.561448,-117.772564
117195,1290700,12907,Lake Tahoe Community College,South Lake Tahoe,CA,96150,38.926864,-119.971631
117238,1301000,13010,Lancaster Beauty School,Lancaster,CA,93534,34.695646,-118.148664
117247,126600,1266,Laney College,Oakland,CA,94607,37.796205,-122.262434
117274,121700,1217,Lassen Community College,Susanville,CA,96130,40.431327,-120.631169
117520,2228500,22285,Life Chiropractic College West,Hayward,CA,94545-2800,37.637639,-122.11627
117557,697500,6975,Lincoln University,Oakland,CA,94612-2801,37.804788,-122.269745
117575,3332300,33323,Southern California Seminary,El Cajon,CA,92019-1108,32.803259,-116.900531
117627,121500,1215,La Sierra University,Riverside,CA,92515-8247,33.908834,-117.497071
117636,121800,1218,Loma Linda University,Loma Linda,CA,92350,34.050975,-117.261086
117645,121900,1219,Long Beach City College,Long Beach,CA,90808-1706,33.831741,-118.135819
117672,122900,1229,Southern California University of Health Sciences,Whittier,CA,90604,33.924638,-117.985447
117690,122400,1224,Los Angeles Harbor College,Wilmington,CA,90744-2397,33.784201,-118.28186
117706,122600,1226,Los Angeles Pierce College,Woodland Hills,CA,91371-0002,34.184184,-118.577194
117715,704700,7047,Los Angeles Southwest College,Los Angeles,CA,90047-4899,33.929586,-118.304674
117724,122700,1227,Los Angeles Trade Technical College,Los Angeles,CA,90015-4181,34.032623,-118.269113
117733,122800,1228,Los Angeles Valley College,Valley Glen,CA,91401-4096,34.176406,-118.421446
117751,122000,1220,The Master's College and Seminary,Santa Clarita,CA,91321-1200,34.38214,-118.517422
117788,122300,1223,Los Angeles City College,Los Angeles,CA,90029,34.087301,-118.292169
117803,616500,6165,Los Angeles County College of Nursing and Allied Health,Los Angeles,CA,90033-1084,34.061605,-118.211418
117867,1255000,12550,Los Angeles Mission College,Sylmar,CA,91342-3200,34.314944,-118.419087
117894,1034000,10340,Los Medanos College,Pittsburg,CA,94565,38.005552,-121.861122
117928,2179943,21799,Argosy University-The Art Institute of California-San Francisco,San Francisco,CA,94102-4908,37.803958,-122.417185
117946,1164900,11649,Loyola Marymount University,Los Angeles,CA,90045-2659,33.970633,-118.415655
117955,1186600,11866,Lu Ross Academy,Ventura,CA,93001-2729,34.278034,-119.293952
118116,1231600,12316,Manchester Beauty College,Fresno,CA,93726,36.792868,-119.79116
118125,1231700,12317,Tulare Beauty College,Tulare,CA,93274,36.204102,-119.367947
118143,714200,7142,Lyles Fresno College of Beauty,Fresno,CA,93710,36.836251,-119.773747
118161,1324000,13240,Lytles Redwood Empire Beauty College Inc,Santa Rosa,CA,95403,38.508581,-122.758546
118189,2546400,25464,MTI Business College Inc,Stockton,CA,95207-4349,38.007318,-121.308527
118198,1291200,12912,MTI College,Sacramento,CA,95841-9817,38.661377,-121.342568
118259,2351900,23519,Brightwood College-Sacramento,Sacramento,CA,95821,38.644462,-121.380453
118277,2091700,20917,Brightwood College-San Diego,San Diego,CA,92123,32.821707,-117.133017
118286,2549000,25490,Brightwood College-Vista,Vista,CA,92083-7736,33.17244,-117.220816
118347,117800,1178,College of Marin,Kentfield,CA,94904-2590,37.955014,-122.549936
118356,747600,7476,Marinello Schools of Beauty-Los Angeles,Los Angeles,CA,90023,34.027512,-118.219865
118541,1047400,10474,Marymount California University,Rancho Palos Verdes,CA,90275-6299,33.73463,-118.333404
118684,1167200,11672,Mendocino College,Ukiah,CA,95482,39.19119,-123.22903
118693,123600,1236,Menlo College,Atherton,CA,94027-4301,37.452906,-122.181444
118718,123700,1237,Merced College,Merced,CA,95348-2898,37.335348,-120.476726
118772,126700,1267,Merritt College,Oakland,CA,94619-3196,37.789088,-122.167335
118888,123800,1238,Mills College,Oakland,CA,94613,37.782639,-122.18789
118912,123900,1239,MiraCosta College,Oceanside,CA,92056-3899,33.191231,-117.302283
118921,2338700,23387,Marinello Schools of Beauty-San Francisco,San Francisco,CA,94103,37.78123,-122.410821
118930,2119100,21191,Mission College,Santa Clara,CA,95054-1897,37.391323,-121.982174
118958,720400,7204,Modern Beauty Academy,Oxnard,CA,93030,34.195384,-119.181423
118967,2539100,25391,Brightwood College-North Hollywood,North Hollywood,CA,91606-3231,34.182673,-118.396131
118976,124000,1240,Modesto Junior College,Modesto,CA,95350-5800,37.652042,-121.009723
118994,2185800,21858,Moler Barber College,Oakland,CA,94609-2419,37.826826,-122.265094
119058,369110,3691,Middlebury Institute of International Studies at Monterey,Monterey,CA,93940,36.599827,-121.896813
119067,124200,1242,Monterey Peninsula College,Monterey,CA,93940-4799,36.590826,-121.885774
119137,711500,7115,Moorpark College,Moorpark,CA,93021-1695,34.300018,-118.836624
119164,124500,1245,Mt San Antonio College,Walnut,CA,91789-1399,34.043786,-117.8437
119173,124300,1243,Mount Saint Mary's University,Los Angeles,CA,90049-1599,34.082112,-118.480471
119216,124600,1246,Mt San Jacinto Community College District,San Jacinto,CA,92583-2399,33.807364,-116.970063
119234,3933300,39333,Mueller College,San Diego,CA,92108-3002,32.76557,-117.163811
119270,2161800,21618,Musicians Institute,Hollywood,CA,90028,34.101527,-118.33783
119331,124700,1247,Napa Valley College,Napa,CA,94558-6236,38.27254,-122.272565
119359,1110900,11109,Everest College-Reseda,Reseda,CA,91335-4631,34.200824,-118.526677
119456,1112300,11123,Everest College-Gardena,Gardena,CA,90247,33.893072,-118.292896
119465,809000,8090,Everest College-Alhambra,Alhambra,CA,91803,34.080181,-118.148684
119508,449400,4494,Everest College-San Bernardino,San Bernardino,CA,92408,34.059754,-117.28222
119544,2518400,25184,The National Hispanic University,San Jose,CA,95127-3823,37.359057,-121.815921
119553,2542300,25423,National Holistic Institute,Emeryville,CA,94608-2008,37.841898,-122.287672
119605,1146000,11460,National University,La Jolla,CA,92037-1011,32.909469,-117.244243
119775,3043900,30439,Newschool of Architecture and Design,San Diego,CA,92101,32.71331,-117.153305
119845,713000,7130,Newberry School of Beauty,Granada Hills,CA,91344-7401,34.25748,-118.499469
119951,718700,7187,North Adrian's College of Beauty Inc,Modesto,CA,95350-2381,37.677778,-120.992753
120069,1287200,12872,North-West College-Pomona,Pomona,CA,91768,34.06203,-117.751861
120078,1170700,11707,North-West College-West Covina,West Covina,CA,91790,34.072071,-117.949583
120087,2591600,25916,North-West College-Pasadena,Pasadena,CA,91101,34.146907,-118.139266
120184,117900,1179,Notre Dame de Namur University,Belmont,CA,94002-1908,37.517501,-122.284618
120254,124900,1249,Occidental College,Los Angeles,CA,90041-3392,34.126224,-118.210783
120272,1298900,12989,Oceanside College of Beauty,Oceanside,CA,92054-5356,33.178889,-117.365276
120290,448100,4481,Ohlone College,Fremont,CA,94539-0390,37.527956,-121.914597
120342,125000,1250,Orange Coast College,Costa Mesa,CA,92626,33.670171,-117.911401
120403,125100,1251,Otis College of Art and Design,Los Angeles,CA,90045-3505,33.956607,-118.416615
120421,1284200,12842,Oxnard College,Oxnard,CA,93033-6699,34.164899,-119.15549
120537,125200,1252,Hope International University,Fullerton,CA,92831-3199,33.87616,-117.88573
120661,793000,7930,Concorde Career College-San Diego,San Diego,CA,92113-1964,32.70406,-117.10187
120698,2138300,21383,Palo Alto University,Palo Alto,CA,94304-1337,37.383251,-122.186022
120740,125400,1254,Pacific Lutheran Theological Seminary,Berkeley,CA,94708-1597,37.898172,-122.260201
120768,125500,1255,Pacific Oaks College,Pasadena,CA,91103,34.153073,-118.151573
120795,125600,1256,Pacific School of Religion,Berkeley,CA,94709,37.876599,-122.263331
120838,3163300,31633,Pacific States University,Los Angeles,CA,90010,34.0607,-118.299841
120865,125800,1258,Pacific Union College,Angwin,CA,94508-9707,38.57409,-122.449639
120883,132900,1329,University of the Pacific,Stockton,CA,95211-0197,37.980624,-121.307296
120953,125900,1259,Palo Verde College,Blythe,CA,92225,33.661538,-114.651698
120971,126000,1260,Palomar College,San Marcos,CA,92069-1487,33.15019,-117.181718
121017,2059800,20598,Paris Beauty College,Concord,CA,94520,37.972204,-122.043458
121044,126100,1261,Pasadena City College,Pasadena,CA,91106-2003,34.144552,-118.118196
121150,1014900,10149,Pepperdine University,Malibu,CA,90263,34.041912,-118.707677
121257,117200,1172,Pitzer College,Claremont,CA,91711-6101,34.103408,-117.705939
121275,2304300,23043,Platt College-San Diego,San Diego,CA,92115-3919,32.76373,-117.063483
121309,126200,1262,Point Loma Nazarene University,San Diego,CA,92106-2899,32.713295,-117.251204
121345,117300,1173,Pomona College,Claremont,CA,91711-6319,34.098298,-117.711944
121363,126800,1268,Porterville College,Porterville,CA,93257,36.049256,-119.014368
121381,1162600,11626,Westwood College-South Bay,Torrance,CA,90502,33.85182,-118.289777
121433,1298400,12984,Professional Institute of Beauty,El Monte,CA,91731,34.075,-118.038
121619,128400,1284,Santa Ana College,Santa Ana,CA,92706-3398,33.759203,-117.888384
121628,1044100,10441,Pardee RAND Graduate School,Santa Monica,CA,90407-2138,34.009975,-118.49047
121637,4161700,41617,Shasta School of Cosmetology,Redding,CA,96003,40.59709,-122.387231
121691,132200,1322,University of Redlands,Redlands,CA,92373-0999,34.063571,-117.163847
121707,118500,1185,College of the Redwoods,Eureka,CA,95501-9300,40.696744,-124.195075
121859,720300,7203,Salon Success Academy-Upland,Upland,CA,91786,34.108353,-117.631091
121868,1309500,13095,Salon Success Academy-Corona,Corona,CA,92879,33.84778,-117.535451
121886,126900,1269,Rio Hondo College,Whittier,CA,90601-1616,34.019878,-118.033329
121901,127000,1270,Riverside City College,Riverside,CA,92506,33.971481,-117.38054
121983,2179908,21799,Argosy University-San Francisco Bay Area,Alameda,CA,94501,37.781238,-122.267523
121992,1294200,12942,Rosemead Beauty School,Rosemead,CA,91770-1639,34.080756,-118.082793
122117,3109500,31095,Dongguk University-Los Angeles,Los Angeles,CA,90020-1704,34.066226,-118.289927
122126,4217100,42171,Rudolf Steiner College,Fair Oaks,CA,95628-6811,38.63481,-121.288571
122180,123300,1233,Sacramento City College,Sacramento,CA,95822-1386,38.541883,-121.49166
122205,891800,8918,Saddleback College,Mission Viejo,CA,92692-3635,33.551925,-117.664876
122296,701200,7012,Samuel Merritt University,Oakland,CA,94609,37.82029,-122.266331
122339,127300,1273,San Diego City College,San Diego,CA,92101-4787,32.718855,-117.151641
122366,3010611,30106,Golf Academy of America-Carlsbad,Carlsbad,CA,92008,33.12291,-117.283394
122375,127500,1275,San Diego Mesa College,San Diego,CA,92111-4998,32.804935,-117.169072
122384,1182000,11820,San Diego Miramar College,San Diego,CA,92126-2999,32.909546,-117.120888
122409,115100,1151,San Diego State University,San Diego,CA,92182,32.77525,-117.071228
122436,1039500,10395,University of San Diego,San Diego,CA,92110-2492,32.77142,-117.188721
122454,394800,3948,San Francisco Art Institute,San Francisco,CA,94133-2299,37.803575,-122.417
122506,127800,1278,San Francisco Conservatory of Music,San Francisco,CA,94102-6011,37.775322,-122.420143
122597,115400,1154,San Francisco State University,San Francisco,CA,94132,37.721345,-122.477905
122603,127900,1279,San Francisco Theological Seminary,San Anselmo,CA,94960-0000,37.969594,-122.564302
122612,132500,1325,University of San Francisco,San Francisco,CA,94117-1080,37.775564,-122.450977
122649,2500000,25000,San Joaquin College of Law,Clovis,CA,93612-1312,36.823978,-119.6978
122658,128000,1280,San Joaquin Delta College,Stockton,CA,95207,37.994643,-121.317226
122685,2120700,21207,San Joaquin Valley College-Visalia,Visalia,CA,93291-9283,36.328049,-119.384981
122728,128100,1281,William Jessup University,Rocklin,CA,95765-3707,38.819494,-121.292968
122746,128200,1282,San Jose City College,San Jose,CA,95128-2798,37.316293,-121.929747
122755,115500,1155,San Jose State University,San Jose,CA,95192-0001,37.335201,-121.881214
122791,118100,1181,College of San Mateo,San Mateo,CA,94402-3784,37.534357,-122.336078
122834,2577900,25779,Santa Barbara Business College-Bakersfield,Bakersfield,CA,93309,35.359544,-119.061264
122843,3072700,30727,Westwood College-Los Angeles,Los Angeles,CA,90010,34.061397,-118.293292
122852,2578000,25780,Santa Barbara Business College-Santa Maria,Santa Maria,CA,93454,34.403862,-119.699744
122889,128500,1285,Santa Barbara City College,Santa Barbara,CA,93109-2394,34.406788,-119.698045
122931,132600,1326,Santa Clara University,Santa Clara,CA,95053,37.352706,-121.938189
122977,128600,1286,Santa Monica College,Santa Monica,CA,90405-1628,34.018968,-118.470431
123013,128700,1287,Santa Rosa Junior College,Santa Rosa,CA,95401-4395,38.45416,-122.720689
123095,2120600,21206,Saybrook University,Oakland,CA,94612-1943,37.80446,-122.272391
123165,117400,1174,Scripps College,Claremont,CA,91711-3905,34.103655,-117.711336
123208,719000,7190,Wyotech-Fremont,Fremont,CA,94539,37.469279,-121.919395
123217,118600,1186,College of the Sequoias,Visalia,CA,93277-2214,36.322957,-119.314775
123280,2359300,23593,Shasta Bible College and Graduate School,Redding,CA,96002,40.564208,-122.315742
123299,128900,1289,Shasta College,Redding,CA,96003,40.625731,-122.317982
123341,129000,1290,Sierra College,Rocklin,CA,95677-3397,38.792758,-121.212646
123350,2064300,20643,Sierra College of Beauty,Merced,CA,95340,37.306585,-120.495668
123396,2188400,21884,Sierra Valley College of Court Reporting,Fresno,CA,93726,36.802756,-119.773017
123448,177212,1772,Trinity Law School,Santa Ana,CA,92705,33.766071,-117.852059
123457,129100,1291,Simpson University,Redding,CA,96003-8606,40.61331,-122.333048
123484,118700,1187,College of the Siskiyous,Weed,CA,96094-2899,41.413848,-122.389166
123493,950900,9509,Charles A Jones Career and Education Center,Sacramento,CA,95824-1529,38.51651,-121.44111
123509,771300,7713,Skyline College,San Bruno,CA,94066-1698,37.630543,-122.465978
123527,127200,1272,San Bernardino Valley College,San Bernardino,CA,92410-2798,34.088717,-117.313814
123554,130200,1302,Saint Mary's College of California,Moraga,CA,94575,37.83997,-122.106795
123563,129200,1292,Solano Community College,Fairfield,CA,94534-3197,38.235513,-122.120232
123572,115600,1156,Sonoma State University,Rohnert Park,CA,94928-3609,38.341023,-122.673261
123581,2608900,26089,Pinnacle College,Alhambra,CA,91803,34.081485,-118.150493
123633,2597300,25973,South Baylo University,Anaheim,CA,92801-1701,33.847936,-117.958663
123642,2277400,22774,South Coast College,Orange,CA,92868-2609,33.787946,-117.874109
123651,129300,1293,Vanguard University of Southern California,Costa Mesa,CA,92626,33.662686,-117.900911
123679,807100,8071,Concorde Career College-Garden Grove,Garden Grove,CA,92840-9201,33.774741,-117.938395
123800,129400,1294,Southwestern College,Chula Vista,CA,91910-7299,32.641567,-116.997215
123916,408000,4080,Starr King School for the Ministry,Berkeley,CA,94709-1209,37.876939,-122.261778
123943,123000,1230,Marshall B Ketchum University,Fullerton,CA,92831-1699,33.889819,-117.886158
123952,2075800,20758,Southern California Institute of Architecture,Los Angeles,CA,90013-1822,34.04365,-118.232703
123961,132800,1328,University of Southern California,Los Angeles,CA,90089,34.021058,-118.283858
123970,129500,1295,Southwestern Law School,Los Angeles,CA,90010-1106,34.061558,-118.288375
124113,130900,1309,Taft College,Taft,CA,93268,35.149343,-119.459751
124283,128800,1288,Claremont School of Theology,Claremont,CA,91711-3199,34.107602,-117.715256
124292,2358000,23580,Thomas Aquinas College,Santa Paula,CA,93060,34.429009,-119.087141
124344,2054900,20549,Marinello Schools of Beauty-Lake Forest,Lake Forest,CA,92630,33.61932,-117.704674
124487,3403300,34033,Epic Bible College,Sacramento,CA,95841,38.64499,-121.362221
124681,2559300,25593,United Education Institute-Huntington Park Campus,Huntington Park,CA,90255,33.986057,-118.226206
124706,853700,8537,Concorde Career College-San Bernardino,San Bernardino,CA,92408-3403,34.06722,-117.28398
124779,1244600,12446,Universal College of Beauty Inc-Los Angeles 1,Los Angeles,CA,90044,33.959435,-118.292148
124937,760700,7607,Concorde Career College-North Hollywood,North Hollywood,CA,91606-3134,34.186464,-118.403755
125028,133400,1334,Ventura College,Ventura,CA,93003-3872,34.277035,-119.230659
125082,2128200,21282,Victor Valley Beauty College Inc,Victorville,CA,92395,34.528578,-117.303918
125091,133500,1335,Victor Valley College,Victorville,CA,92395-5850,34.472231,-117.261456
125170,2242700,22427,Berkeley City College,Berkeley,CA,94704,37.87047,-122.269793
125231,2504200,25042,Walden University,Minneapolis,MN,55401,44.98137,-93.265741
125310,2061600,20616,Waynes College of Beauty,Salinas,CA,93906-2830,36.700462,-121.6523
125462,117600,1176,West Hills College-Coalinga,Coalinga,CA,93210,36.147891,-120.356747
125471,859600,8596,West Los Angeles College,Culver City,CA,90230-3519,34.005578,-118.387578
125499,133800,1338,West Valley College,Saratoga,CA,95070-5698,37.263133,-122.009701
125532,974800,9748,Carrington College-Sacramento,Sacramento,CA,95826,38.561777,-121.36892
125718,2276800,22768,Westminster Theological Seminary in California,Escondido,CA,92027,33.121447,-117.046371
125727,134100,1341,Westmont College,Santa Barbara,CA,93108-1089,34.449265,-119.661932
125763,134200,1342,Whittier College,Whittier,CA,90601,33.977625,-118.028402
125897,134300,1343,Woodbury University,Burbank,CA,91510-7846,34.209226,-118.340692
126012,884600,8846,The Wright Institute,Berkeley,CA,94704-1796,37.868221,-122.253168
126030,2179937,21799,Western State College of Law at Argosy University,Fullerton,CA,92831-3014,33.880672,-117.890274
126049,1085400,10854,Thomas Jefferson School of Law,San Diego,CA,92101,32.71014,-117.154191
126076,2262400,22624,Yeshiva Ohr Elchonon Chabad West Coast Talmudical Seminary,Los Angeles,CA,90046,34.085494,-118.346688
126119,134400,1344,Yuba College,Marysville,CA,95901,39.125995,-121.539316
126164,2165200,21652,The Salon Professional Academy-Grand Junction,Grand Junction,CO,81501,39.07799,-108.564961
126182,134500,1345,Adams State University,Alamosa,CO,81101,37.477238,-105.880943
126207,758200,7582,Aims Community College,Greeley,CO,80632,40.409037,-104.764335
126289,134600,1346,Arapahoe Community College,Littleton,CO,80160-9002,39.607505,-105.018631
126359,1267000,12670,Bel-Rea Institute of Animal Technology,Denver,CO,80247,39.686066,-104.875292
126401,450300,4503,Everest College-Colorado Springs,Colorado Springs,CO,80916,38.807095,-104.740267
126562,450800,4508,University of Colorado Denver/Anschutz Medical Campus,Denver,CO,80217-3364,39.74603,-104.999181
126580,450900,4509,University of Colorado Colorado Springs,Colorado Springs,CO,80918,38.892735,-104.800296
126605,729700,7297,Redstone College,Broomfield,CO,80021-3465,39.914822,-105.119096
126614,137000,1370,University of Colorado Boulder,Boulder,CO,80309-0017,40.004415,-105.267061
126669,940100,9401,Colorado Christian University,Lakewood,CO,80226,39.711701,-105.094836
126678,134700,1347,Colorado College,Colorado Springs,CO,80903,38.84657,-104.82422
126687,887100,8871,Concorde Career College-Aurora,Aurora,CO,80010-4314,39.718699,-104.867089
126702,2078900,20789,The Art Institute of Colorado,Denver,CO,80203-2983,39.735587,-104.985847
126711,450600,4506,Colorado Mountain College,Glenwood Springs,CO,81601-0233,39.54634,-107.324401
126748,135900,1359,Colorado Northwestern Community College,Rangely,CO,81648-3598,40.080745,-108.790296
126775,134800,1348,Colorado School of Mines,Golden,CO,80401,39.75079,-105.227148
126784,1157200,11572,Colorado School of Trades,Lakewood,CO,80215-2996,39.741009,-105.103945
126818,135000,1350,Colorado State University-Fort Collins,Fort Collins,CO,80523-0100,40.574759,-105.08083
126827,1014800,10148,Colorado Technical University-Colorado Springs,Colorado Springs,CO,80907-3812,38.894265,-104.833928
126854,966407,9664,Empire Beauty School-Lakewood,Lakewood,CO,80226,39.722781,-105.082104
126863,2276900,22769,Community College of Aurora,Aurora,CO,80011-9036,39.717767,-104.801861
126872,2594300,25943,CollegeAmerica-Denver,Denver,CO,80222,39.691571,-104.94118
126915,2156200,21562,Delta Montrose Technical College,Delta,CO,81416,38.702524,-108.031072
126924,2296004,22960,Prince Institute-Rocky Mountains,Westminster,CO,80031-2901,39.859891,-105.065051
126942,954200,9542,Community College of Denver,Denver,CO,80204-2026,39.74142,-105.003007
126951,793806,7938,Lincoln College of Technology-Denver,Denver,CO,80239,39.77651,-104.856171
126979,135200,1352,Denver Seminary,Littleton,CO,80120,39.600595,-105.022363
127024,754800,7548,Westwood College-Denver North,Denver,CO,80221,39.830429,-104.986386
127060,137100,1371,University of Denver,Denver,CO,80208,39.695954,-104.964625
127158,559600,5596,Emily Griffith Technical College,Denver,CO,80203,39.74574,-104.985711
127185,135300,1353,Fort Lewis College,Durango,CO,81301-3999,37.275428,-107.867003
127200,793300,7933,Front Range Community College,Westminster,CO,80031,39.901757,-105.039359
127219,2267500,22675,Glenwood Beauty Academy,Glenwood Springs,CO,81601,39.561947,-107.359099
127228,2518500,25185,Hair Dynamics Education Center,Fort Collins,CO,80525,40.497241,-105.076492
127273,135400,1354,Iliff School of Theology,Denver,CO,80210-4798,39.674876,-104.959703
127316,1285000,12850,International Salon and Spa Academy,Colorado Springs,CO,80918-3684,38.913621,-104.786252
127389,135500,1355,Lamar Community College,Lamar,CO,81052-3999,38.058067,-102.615612
127556,135800,1358,Colorado Mesa University,Grand Junction,CO,81501-3122,39.076354,-108.540281
127565,136000,1360,Metropolitan State University of Denver,Denver,CO,80217-3362,39.742248,-105.002391
127617,998100,9981,Morgan Community College,Fort  Morgan,CO,80701,40.258792,-103.771822
127653,2117500,21175,Naropa University,Boulder,CO,80302-6697,40.014816,-105.267073
127680,405702,4057,National American University-Colorado Springs,Colorado Springs,CO,80920,38.95211,-104.790581
127699,405703,4057,National American University-Denver,Denver,CO,80222-3308,39.691953,-104.941649
127714,1300700,13007,Nazarene Bible College,Colorado Springs,CO,80910-3704,38.814124,-104.751124
127732,136100,1361,Northeastern Junior College,Sterling,CO,80751-2944,40.636879,-103.197536
127741,134900,1349,University of Northern Colorado,Greeley,CO,80639,40.403178,-104.701721
127778,136200,1362,Otero Junior College,La Junta,CO,81050,37.971184,-103.544779
127787,450700,4507,Everest College-Thornton,Thornton,CO,80229,39.86156,-104.985441
127820,889600,8896,Pikes Peak Community College,Colorado Springs,CO,80906-5498,38.764287,-104.787261
127839,863500,8635,IBMC College,Colorado Springs,CO,80919,38.931,-104.814211
127884,2116300,21163,Pueblo Community College,Pueblo,CO,81004-1499,38.263458,-104.636396
127909,954300,9543,Red Rocks Community College,Lakewood,CO,80228-1255,39.720277,-105.150094
127918,136300,1363,Regis University,Denver,CO,80221-1099,39.78976,-105.031385
127945,764900,7649,Rocky Mountain College of Art and Design,Lakewood,CO,80214,39.74332,-105.069911
127954,3306300,33063,Montessori Education Center of the Rockies,Boulder,CO,80301,39.96504,-105.25311
128106,136500,1365,Colorado State University-Pueblo,Pueblo,CO,81001-4901,38.309219,-104.579846
128151,1287500,12875,Pickens Technical College,Aurora,CO,80011-9307,39.723527,-104.78998
128179,2253700,22537,Intellitec College-Colorado Springs,Colorado Springs,CO,80909-6096,38.832183,-104.78721
128188,3066900,30669,Intellitec College-Grand Junction,Grand Junction,CO,81506,39.116346,-108.53062
128258,136800,1368,Trinidad State Junior College,Trinidad,CO,81082,37.172939,-104.512184
128337,757306,7573,Empire Beauty School-Thornton,Thornton,CO,80233,39.914863,-104.943533
128391,137200,1372,Western State Colorado University,Gunnison,CO,81231,38.547421,-106.91971
128498,137400,1374,Albertus Magnus College,New Haven,CT,06511-1189,41.332519,-72.923848
128540,887300,8873,Paul Mitchell the School-Danbury,Danbury,CT,6810,41.39648,-73.451841
128577,1115000,11150,Asnuntuck Community College,Enfield,CT,6082,41.998409,-72.570177
128674,2074000,20740,Branford Hall Career Institute-Branford Campus,Branford,CT,6405,41.278557,-72.848201
128683,940700,9407,Lincoln College of New England-Southington,Southington,CT,06489-1057,41.632345,-72.920217
128726,618100,6181,Bridgeport Hospital School of Nursing,Bridgeport,CT,6610,41.189413,-73.165185
128744,141600,1416,University of Bridgeport,Bridgeport,CT,06604-5620,41.165587,-73.189352
128771,137800,1378,Central Connecticut State University,New Britain,CT,6050,41.690258,-72.770094
128780,3234300,32343,Charter Oak State College,New Britain,CT,6053,41.688246,-72.767972
128896,2316600,23166,Connecticut Center for Massage Therapy-Newington,Newington,CT,06111-3975,41.685072,-72.710705
128902,137900,1379,Connecticut College,New London,CT,06320-4196,41.379833,-72.107321
128957,1041700,10417,Marinello Schools of Beauty-East Hartford,East Hartford,CT,6108,41.771184,-72.642363
129002,730500,7305,Porter and Chester Institute of Branford,Branford,CT,6405,41.277311,-72.854898
129020,141700,1417,University of Connecticut,Storrs,CT,6269,41.806261,-72.247969
129154,2244900,22449,Goodwin College,East Hartford,CT,6118,41.74405,-72.6403
129181,730306,7303,Lincoln Technical Institute-East Windsor,East Windsor,CT,6088,41.924248,-72.596915
129215,142500,1425,Eastern Connecticut State University,Willimantic,CT,6226,41.721673,-72.218753
129242,138500,1385,Fairfield University,Fairfield,CT,06824-5195,41.160732,-73.25778
129349,2112700,21127,Paul Mitchell the School-North Haven,North Haven,CT,6473,41.394495,-72.85745
129367,763500,7635,Capital Community College,Hartford,CT,6103,41.768397,-72.672734
129428,280301,2803,Rensselaer Hartford Graduate Center Inc,Hartford,CT,6120,41.773462,-72.673916
129482,2106600,21066,American Institute-West Hartford,West Hartford,CT,06110-1922,41.727016,-72.725762
129491,138700,1387,Hartford Seminary,Hartford,CT,06105-2260,41.769861,-72.707766
129525,142200,1422,University of Hartford,West Hartford,CT,06117-1599,41.796485,-72.714965
129534,138900,1389,Holy Apostles College and Seminary,Cromwell,CT,06416-2005,41.60682,-72.647853
129543,451300,4513,Housatonic Community College,Bridgeport,CT,06604-4704,41.175228,-73.191003
129686,3079400,30794,Lyme Academy College of Fine Arts,Old Lyme,CT,6371,41.322826,-72.329397
129695,139200,1392,Manchester Community College,Manchester,CT,6040,41.760484,-72.562577
129729,698200,6982,Naugatuck Valley Community College,Waterbury,CT,06708-3089,41.549564,-73.071209
129756,803800,8038,Middlesex Community College,Middletown,CT,06457-4829,41.539516,-72.611838
129774,139300,1393,Mitchell College,New London,CT,6320,41.328075,-72.095337
129808,976500,9765,Three Rivers Community College,Norwich,CT,6360,41.509945,-72.103039
129923,730300,7303,Lincoln Technical Institute-New Britain,New Britain,CT,6051,41.659236,-72.754498
129932,2202500,22025,New England Tractor Trailer Training School of Connecticut,Somers,CT,6071,41.978355,-72.451739
129941,139700,1397,University of New Haven,West Haven,CT,06516-1916,41.291314,-72.961472
129969,2112300,21123,Ridley-Lowell Business & Technical Institute-New London,New London,CT,6320,41.349947,-72.100514
130004,139900,1399,Norwalk Community College,Norwalk,CT,6854,41.102574,-73.450965
130040,139800,1398,Northwestern Connecticut Community College,Winsted,CT,6098,41.920982,-73.059291
130110,745900,7459,Paier College of Art Inc,Hamden,CT,06514-3902,41.347714,-72.935048
130129,887400,8874,Marinello Schools of Beauty-Meriden,Meriden,CT,6450,41.524385,-72.763231
130174,1077900,10779,Porter and Chester Institute of Stratford,Stratford,CT,06615-7158,41.169646,-73.149023
130183,140100,1401,Post University,Waterbury,CT,6723,41.535334,-73.080525
130217,1053000,10530,Quinebaug Valley Community College,Danielson,CT,06239-1436,41.82623,-71.889673
130226,140200,1402,Quinnipiac University,Hamden,CT,6518,41.419527,-72.895542
130253,140300,1403,Sacred Heart University,Fairfield,CT,06825-1000,41.221548,-73.24461
130314,140900,1409,University of Saint Joseph,West Hartford,CT,6117,41.783028,-72.730489
130396,803700,8037,Gateway Community College,New Haven,CT,6510,41.30432,-72.927191
130448,619100,6191,St Vincent's College,Bridgeport,CT,06606-4201,41.201198,-73.201106
130493,140600,1406,Southern Connecticut State University,New Haven,CT,06515-1355,41.331852,-72.948806
130509,1242500,12425,Stone Academy-Hamden,West Haven,CT,6516,41.2678,-72.977191
130581,2546000,25460,Tri-State College of Acupuncture,New York,NY,10011,40.739862,-74.002085
130590,141400,1414,Trinity College,Hartford,CT,06106-3100,41.746746,-72.688684
130606,976400,9764,Tunxis Community College,Farmington,CT,06032-3187,41.705498,-72.87754
130697,142400,1424,Wesleyan University,Middletown,CT,6459,41.55678,-72.656755
130776,138000,1380,Western Connecticut State University,Danbury,CT,06810-6826,41.400365,-73.444264
130785,2296100,22961,Yale-New Haven Hospital Dietetic Internship,New Haven,CT,6510,41.304214,-72.935579
130794,142600,1426,Yale University,New Haven,CT,6520,41.311158,-72.926688
130837,2125200,21252,Margaret H Rollins School of Nursing at Beebe Medical Center,Lewes,DE,19958,38.771265,-75.142425
130873,3025800,30258,Dawn Career Institute Inc,Wilmington,DE,19805-1511,39.754694,-75.594268
130891,705300,7053,Delaware Technical Community College-Owens,Georgetown,DE,19947,38.697344,-75.40752
130907,1172700,11727,Delaware Technical Community College-Terry,Dover,DE,19901,39.198371,-75.56012
130916,2144900,21449,Delaware Technical Community College-Stanton/Wilmington,Wilmington,DE,19801,39.740346,-75.552084
130934,142800,1428,Delaware State University,Dover,DE,19901,39.187173,-75.54053
130943,143100,1431,University of Delaware,Newark,DE,19716,39.6795744,-75.7529169
130989,142900,1429,Goldey-Beacom College,Wilmington,DE,19808,39.742464,-75.694018
131061,2190400,21904,Schilling-Douglas School of Hair Design LLC,Newark,DE,19711,39.710939,-75.742386
131098,143300,1433,Wesley College,Dover,DE,19901-3875,39.16325,-75.527377
131113,794800,7948,Wilmington University,New Castle,DE,19720,39.682299,-75.586998
131159,143400,1434,American University,Washington,DC,20016-8001,38.937802,-77.090106
131283,143700,1437,Catholic University of America,Washington,DC,20064,38.935796,-76.998961
131399,144100,1441,University of the District of Columbia,Washington,DC,20008,38.943819,-77.066247
131405,1280300,12803,Pontifical Faculty of the Immaculate Conception at the Dominican House of Studies,Washington,DC,20017-1585,38.931427,-76.998806
131450,144300,1443,Gallaudet University,Washington,DC,20002-3695,38.907371,-76.993675
131469,144400,1444,George Washington University,Washington,DC,20052,38.89865,-77.047871
131496,144500,1445,Georgetown University,Washington,DC,20057-0001,38.908809,-77.073463
131520,144800,1448,Howard University,Washington,DC,20059-0001,38.920739,-77.019478
131742,2588900,25889,Medtech Institute,Falls Church,VA,22042,38.86969,-77.170381
131803,145900,1459,Strayer University-District of Columbia,Washington,DC,20005,38.904851,-77.034349
131830,2132800,21328,National Conservatory of Dramatic Arts,Washington,DC,20007,38.910024,-77.065095
131876,146000,1460,Trinity Washington University,Washington,DC,20017-1094,38.927398,-77.004261
131973,146400,1464,Wesley Theological Seminary,Washington,DC,20016-5690,38.939606,-77.08996
132268,2346200,23462,Wyotech-Daytona,Ormond Beach,FL,32174,29.349365,-81.133086
132338,1019500,10195,The Art Institute of Fort Lauderdale,Fort Lauderdale,FL,33316-3000,26.101246,-80.123514
132374,1226300,12263,Atlantic Technical College,Coconut Creek,FL,33063-3902,26.243609,-80.185311
132408,2159600,21596,The Baptist College of Florida,Graceville,FL,32440,30.956401,-85.519033
132471,146600,1466,Barry University,Miami,FL,33161-6695,25.878865,-80.196136
132523,1112700,11127,Gooding Institute of Nurse Anesthesia,Panama City,FL,32405,30.201524,-85.649812
132602,146700,1467,Bethune-Cookman University,Daytona Beach,FL,32114-3099,29.210193,-81.031429
132657,150500,1505,Lynn University,Boca Raton,FL,33431-5598,26.382777,-80.123851
132666,2200100,22001,GUTI The Premier Beauty & Wellness Academy,Bradenton,FL,34210,27.46281,-82.602211
132675,3382300,33823,Bradford-Union Technical Center,Starke,FL,32091,29.952134,-82.123082
132693,147000,1470,Eastern Florida State College,Cocoa,FL,32922,28.384791,-80.75813
132709,150000,1500,Broward College,Fort Lauderdale,FL,33301,26.07972,-80.23541
132806,2245500,22455,Fortis College-Winter Park,Winter Park,FL,32789,28.555401,-81.448402
132842,1072401,10724,Carlos Albizu University-Miami,Miami,FL,33172-2209,25.795162,-80.355002
132851,147100,1471,College of Central Florida,Ocala,FL,34474,29.166079,-82.175692
132879,349503,3495,Johnson University Florida,Kissimmee,FL,34744,28.301869,-81.362512
132903,395400,3954,University of Central Florida,Orlando,FL,32816,28.60106,-81.198805
132976,2297000,22970,Charlotte Technical Center,Port Charlotte,FL,33948-3399,27.005558,-82.147238
133021,147200,1472,Chipola College,Marianna,FL,32446-2053,30.790647,-85.231946
133085,147300,1473,Clearwater Christian College,Clearwater,FL,33759-4595,27.963556,-82.697305
133155,1323400,13234,Lorenzo Walker Technical College,Naples,FL,34104-4405,26.141199,-81.763355
133386,147500,1475,Daytona State College,Daytona Beach,FL,32114,29.202286,-81.051266
133465,1303904,13039,South University-West Palm Beach,Royal Palm Beach,FL,33411,26.69165,-80.19969
133492,148700,1487,Eckerd College,Saint Petersburg,FL,33711-4700,27.718996,-82.685992
133508,147700,1477,Florida SouthWestern State College,Fort Myers,FL,33919,26.554737,-81.887375
133526,147800,1478,Edward Waters College,Jacksonville,FL,32209,30.34513,-81.684817
133553,147900,1479,Embry-Riddle Aeronautical University-Daytona Beach,Daytona Beach,FL,32114-3900,29.189244,-81.0495
133650,148000,1480,Florida Agricultural and Mechanical University,Tallahassee,FL,32307,30.428554,-84.285644
133669,148100,1481,Florida Atlantic University,Boca Raton,FL,33431-0991,26.372536,-80.102293
133702,148400,1484,Florida State College at Jacksonville,Jacksonville,FL,32202,30.334918,-81.659901
133711,789300,7893,Flagler College-St Augustine,Saint Augustine,FL,32084,29.89335,-81.315256
133809,148200,1482,Florida College,Temple Terrace,FL,33617,28.034911,-82.383446
133845,2089600,20896,Concorde Career Institute-Jacksonville,Jacksonville,FL,32256-6905,30.23977,-81.581821
133854,2275100,22751,Concorde Career Institute-Miramar,Miramar,FL,33025,26.175119,-80.203007
133863,2172700,21727,Concorde Career Institute-Tampa,Tampa,FL,33607-4127,27.959058,-82.515082
133872,3115500,31155,Adventist University of Health Sciences,Orlando,FL,32803,28.576142,-81.367687
133881,146900,1469,Florida Institute of Technology,Melbourne,FL,32901-6975,28.064503,-80.624628
133942,2329900,23299,Florida Institute of Ultrasound Inc,Pensacola,FL,32514,30.534939,-87.220615
133951,963500,9635,Florida International University,Miami,FL,33199,25.757111,-80.377591
133960,148500,1485,Florida Keys Community College,Key West,FL,33040,24.582748,-81.74446
133979,148600,1486,Florida Memorial University,Miami Gardens,FL,33054-6199,25.917854,-80.270672
133997,2305800,23058,Florida Career College-Miami,Miami,FL,33174,25.755342,-80.366666
134024,4129900,41299,Florida School of Massage,Gainesville,FL,32608-5419,29.593484,-82.338528
134079,148800,1488,Florida Southern College,Lakeland,FL,33801-5698,28.031507,-81.945791
134097,148900,1489,Florida State University,Tallahassee,FL,32306-1037,30.4421,-84.294801
134112,2218700,22187,Florida Technical College,Orlando,FL,32826,28.57316,-81.196091
134121,2598200,25982,University of Southernmost Florida,Jacksonville,FL,32225,30.3257,-81.550041
134130,153500,1535,University of Florida,Gainesville,FL,32611,29.649428,-82.339958
134149,149910,1499,Everest University-Pompano Beach,Pompano Beach,FL,33062,26.234119,-80.103598
134228,2338400,23384,Fort Pierce Beauty Academy,Fort Pierce,FL,34982-6333,27.412426,-80.324698
134237,2362100,23621,Full Sail University,Winter Park,FL,32792-7429,28.596546,-81.301286
134291,2307400,23074,George Stone Technical Center,Pensacola,FL,32526-8922,30.488083,-87.295105
134307,3079800,30798,George T Baker Aviation Technical College,Miami,FL,33142,25.804092,-80.263591
134343,149000,1490,Gulf Coast State College,Panama City,FL,32401,30.186104,-85.727249
134422,2325100,23251,Key College,Dania Beach,FL,33004-3046,26.052841,-80.139871
134495,787000,7870,Hillsborough Community College,Tampa,FL,33606-3584,27.934513,-82.456919
134510,2188900,21889,Hobe Sound Bible College,Hobe Sound,FL,33455-1065,27.066473,-80.132413
134529,4162500,41625,Hollywood Institute of Beauty Careers,Hollywood,FL,33023,26.006778,-80.207528
134574,2279600,22796,Cortiva Institute-Florida,Pinellas Park,FL,33781,27.839722,-82.688959
134608,149300,1493,Indian River State College,Fort Pierce,FL,34981-5596,27.423121,-80.35785
134680,3031400,30314,Sanford-Brown College-Tampa,Tampa,FL,33307,27.952884,-82.504433
134714,2257900,22579,International Academy,South Daytona,FL,32119,29.162159,-80.997811
134811,887800,8878,AI Miami International University of Art and Design,Miami,FL,33132-1418,25.790008,-80.18839
134909,732910,7329,ITT Technical Institute-Tampa,Tampa,FL,33634-7350,27.982417,-82.547618
134945,149500,1495,Jacksonville University,Jacksonville,FL,32211-3394,30.350349,-81.60706
135063,149700,1497,Jones College-Jacksonville,Jacksonville,FL,32211,30.328002,-81.610068
135081,2151900,21519,Keiser University-Ft Lauderdale,Fort Lauderdale,FL,33309,26.185869,-80.163959
135124,2597100,25971,Heritage Institute-Ft Myers,Fort Myers,FL,33912,26.540884,-81.842475
135142,2287100,22871,La Belle Beauty School,Hialeah,FL,33012,25.86696,-80.312721
135160,150100,1501,Florida Gateway College,Lake City,FL,32025-2007,30.174307,-82.569667
135179,2228300,22283,Lake Technical College,Eustis,FL,32726,28.833446,-81.690874
135188,150200,1502,Lake-Sumter State College,Leesburg,FL,34788-8751,28.830237,-81.797731
135267,755800,7558,Fort Myers Technical College,Fort Myers,FL,33916-2204,26.64855,-81.832974
135276,558500,5585,Lively Technical Center,Tallahassee,FL,32304-2895,30.448534,-84.339057
135294,558600,5586,Lindsey Hopkins Technical College,Miami,FL,33127,25.794676,-80.208154
135337,1016100,10161,Loraines Academy & Spa,Saint Petersburg,FL,33710,27.781266,-82.711151
135364,3100900,31009,Luther Rice University & Seminary,Lithonia,GA,30038-9869,33.697984,-84.123648
135391,150400,1504,State College of Florida-Manatee-Sarasota,Bradenton,FL,34207,27.436066,-82.591739
135407,561200,5612,Manatee Technical College,Bradenton,FL,34203,27.446201,-82.480472
135416,2148300,21483,Manhattan Hairstyling Academy,Tampa,FL,33611,27.902454,-82.518444
135522,560800,5608,Traviss Career Center,Lakeland,FL,33803,27.99579,-81.893503
135559,4227500,42275,Merryfield School of Pet Grooming,Oakland Park,FL,33334-4925,26.19042,-80.129971
135610,177201,1772,Trinity International University-Florida,Davie,FL,33324,26.099656,-80.257156
135647,2316200,23162,Miami Lakes Educational Center and Technical College,Miami Lakes,FL,33014,25.916128,-80.29513
135717,150600,1506,Miami Dade College,Miami,FL,33132-2204,25.777717,-80.190856
135726,153600,1536,University of Miami,Coral Gables,FL,33146,25.720406,-80.27645
135735,2501500,25015,Orange Technical College-Mid Florida Campus,Orlando,FL,32809,28.471695,-81.415996
135771,2283801,22838,Beauty Schools of America-Miami,Miami,FL,33144-4700,25.760695,-80.303842
135939,3026508,30265,Remington College-Tampa Campus,Tampa,FL,33619,27.983466,-82.385976
135957,149913,1499,Everest Institute-North Miami,Miami,FL,33169-4538,25.942952,-80.203534
136048,3113400,31134,Academy of Palm Beach,Lake Worth,FL,33463-2113,26.631072,-80.113108
136066,1246117,12461,Lincoln College of Technology-West Palm Beach,West Palm Beach,FL,33407,26.758227,-80.094805
136109,2149900,21499,Paul Mitchell the School-Jacksonville,Jacksonville,FL,32246,30.260902,-81.527289
136145,150800,1508,North Florida Community College,Madison,FL,32340,30.473871,-83.421873
136172,984100,9841,University of North Florida,Jacksonville,FL,32224-7699,30.270917,-81.507853
136206,407215,4072,Northwood University-Florida,West Palm Beach,FL,33409-2911,26.714688,-80.104138
136215,150900,1509,Nova Southeastern University,Fort Lauderdale,FL,33314-7796,26.079337,-80.24248
136233,151000,1510,Northwest Florida State College,Niceville,FL,32578-1295,30.537148,-86.475467
136288,149900,1499,Everest University-North Orlando,Orlando,FL,32810,28.610884,-81.387438
136303,2513200,25132,Orange Technical College-Orlando Campus,Orlando,FL,32801-1197,28.550422,-81.383783
136330,884900,8849,Palm Beach Atlantic University,West Palm Beach,FL,33401,26.704629,-80.049758
136358,151200,1512,Palm Beach State College,Lake Worth,FL,33461-4796,26.613214,-80.087104
136400,1065200,10652,Pasco-Hernando State College,New Port Richey,FL,34654-5199,28.2751,-82.646727
136473,151300,1513,Pensacola State College,Pensacola,FL,32504-8998,30.480779,-87.200622
136491,560500,5605,Pinellas Technical College-Clearwater,Clearwater,FL,33760-2140,27.911922,-82.719064
136516,151400,1514,Polk State College,Winter Haven,FL,33881-4299,28.030775,-81.712932
136659,2554200,25542,Radford M Locklin Technical Center,Milton,FL,32570-8188,30.646762,-87.100567
136701,822300,8223,Saint Vincent de Paul Regional Seminary,Boynton Beach,FL,33436-4899,26.51582,-80.125707
136765,2511700,25117,Ridge Career Center,Winter Haven,FL,33881-9518,28.076632,-81.654463
136774,1257400,12574,Ringling College of Art and Design,Sarasota,FL,34234-5895,27.35963,-82.548598
136826,2524200,25242,Robert Morgan Educational Center and Technical College,Miami,FL,33177,25.599133,-80.390354
136950,151500,1515,Rollins College,Winter Park,FL,32789-4499,28.591992,-81.348716
137023,1254400,12544,First Coast Technical College,Saint Augustine,FL,32084-1919,29.924377,-81.345829
137032,152600,1526,Saint Leo University,Saint Leo,FL,33574-6665,28.336776,-82.257287
137078,152800,1528,St Petersburg College,Clearwater,FL,33760-2822,27.9026,-82.717321
137087,2115300,21153,Pinellas Technical College-St. Petersburg,Saint Petersburg,FL,33711-2209,27.761183,-82.681534
137096,151900,1519,Santa Fe College,Gainesville,FL,32606-6210,29.680698,-82.433958
137120,560700,5607,Suncoast Technical College,Sarasota,FL,34233-1798,27.285486,-82.500827
137148,2179918,21799,Argosy University-Sarasota,Sarasota,FL,34235,27.351394,-82.465363
137209,152000,1520,Seminole State College of Florida,Sanford,FL,32773-6199,28.74475,-81.305606
137245,990200,9902,Sheridan Technical College,Hollywood,FL,33021,26.031736,-80.198024
137272,807500,8075,Saint John Vianney College Seminary,Miami,FL,33165-3244,25.742579,-80.337411
137281,152300,1523,Saint Johns River State College,Palatka,FL,32177,29.647195,-81.681137
137315,152200,1522,South Florida State College,Avon Park,FL,33825-9356,27.569553,-81.508387
137351,153700,1537,University of South Florida-Main Campus,Tampa,FL,33620-9951,28.056647,-82.415876
137476,146800,1468,St Thomas University,Miami Gardens,FL,33054-6459,25.920915,-80.256265
137537,841700,8417,Stenotype Institute of Jacksonville Inc-Jacksonville,Jacksonville,FL,32207,30.289644,-81.635062
137546,153100,1531,Stetson University,DeLand,FL,32723,29.036295,-81.301604
137564,152100,1521,Southeastern University,Lakeland,FL,33801-6034,28.031864,-81.918997
137591,3018500,30185,Benes International School of Beauty,New Port Richey,FL,34652,28.261074,-82.72846
137713,752500,7525,RIVEROAK Technical College,Live Oak,FL,32064,30.2839,-82.991356
137759,153300,1533,Tallahassee Community College,Tallahassee,FL,32304-2895,30.445234,-84.341462
137777,2508900,25089,Talmudic College of Florida,Miami Beach,FL,33140-3854,25.7949,-80.141334
137801,149904,1499,Everest University-Tampa,Tampa,FL,33614,27.996582,-82.497616
137810,149907,1499,Everest University-Largo,Largo,FL,33770-2556,27.915296,-82.775886
137847,153800,1538,The University of Tampa,Tampa,FL,33606-1490,27.947225,-82.465582
137856,3100800,31008,Taylor Technical Institute,Perry,FL,32348,30.077954,-83.565783
137865,1082600,10826,Tom P Haney Technical Center,Panama City,FL,32405,30.203363,-85.646585
137953,3101900,31019,Trinity Baptist College,Jacksonville,FL,32221,30.323755,-81.705655
137962,3028200,30282,Trinity College of Florida,Trinity,FL,34655-4401,28.194222,-82.677065
138132,2148200,21482,Fashion Focus Hair Academy,Sarasota,FL,34231-4813,27.258911,-82.517388
138187,675000,6750,Valencia College,Orlando,FL,32835,28.52092,-81.471181
138275,884800,8848,Warner University,Lake Wales,FL,33859-8797,27.825751,-81.599972
138284,752600,7526,Florida Panhandle Technical College,Chipley,FL,32428-1618,30.77449,-85.553345
138293,154000,1540,Webber International University,Babson Park,FL,33827-0096,27.838798,-81.532325
138309,869410,8694,Rasmussen College-Florida,Ocala,FL,34474-6226,29.14081,-82.19842
138354,395500,3955,The University of West Florida,Pensacola,FL,32514-5750,30.542855,-87.218125
138372,2321200,23212,Orange Technical College-Westside Campus,Winter Garden,FL,34787-3733,28.559574,-81.571532
138479,3003600,30036,William T McFatter Technical College,Davie,FL,33317,26.085022,-80.232201
138488,2504600,25046,Orange Technical College-Winter Park Campus,Winter Park,FL,32789-3049,28.604386,-81.36174
138497,2300900,23009,Withlacoochee Technical Institute,Inverness,FL,34450-4696,28.834861,-82.345563
138558,154100,1541,Abraham Baldwin Agricultural College,Tifton,GA,31793-2601,31.481889,-83.528281
138600,154200,1542,Agnes Scott College,Decatur,GA,30030-3770,33.769996,-84.29563
138655,2284300,22843,Interactive College of Technology-Chamblee,Chamblee,GA,30341,33.889452,-84.301964
138664,2284308,22843,Interactive College of Technology-Morrow,Morrow,GA,30260,33.57233,-84.336098
138682,560100,5601,Albany Technical College,Albany,GA,31701,31.55434,-84.174284
138691,154300,1543,Darton State College,Albany,GA,31707-3098,31.583594,-84.212087
138716,154400,1544,Albany State University,Albany,GA,31705,31.571395,-84.14306
138761,154500,1545,Andrew College,Cuthbert,GA,39840-5550,31.772321,-84.795021
138789,154600,1546,Armstrong State University,Savannah,GA,31419-1997,31.978109,-81.160409
138813,927000,9270,The Art Institute of Atlanta,Atlanta,GA,30328-1635,33.937445,-84.354867
138822,3005400,30054,Georgia Career Institute,Conyers,GA,30094,33.64337,-84.018361
138840,854300,8543,Atlanta Technical College,Atlanta,GA,30310-4446,33.712009,-84.404995
138868,154700,1547,Point University,West Point,GA,31833,32.879715,-85.185134
138901,1216500,12165,Atlanta Metropolitan State College,Atlanta,GA,30310-4448,33.70893,-84.404659
138929,3173300,31733,Atlanta's John Marshall Law School,Atlanta,GA,30309,33.793388,-84.38777
138938,2580200,25802,Atlanta School of Massage,Atlanta,GA,30338,33.927829,-84.29844
138947,155900,1559,Clark Atlanta University,Atlanta,GA,30314-4391,33.748772,-84.412818
138956,559900,5599,Augusta Technical College,Augusta,GA,30906,33.418992,-82.048439
139010,1107400,11074,Bainbridge State College,Bainbridge,GA,39819,30.899474,-84.535049
139074,1157400,11574,Bauder College,Atlanta,GA,30313,33.767494,-84.399724
139092,2577700,25777,Beauty College of America,Forest Park,GA,30297-1443,33.618673,-84.351999
139144,155400,1554,Berry College,Mount Berry,GA,30149,34.289254,-85.189077
139153,3076300,30763,Beulah Heights University,Atlanta,GA,30316,33.737022,-84.358086
139199,155600,1556,Brenau University,Gainesville,GA,30501-3668,34.303117,-83.821513
139205,155700,1557,Brewton-Parker College,Mount Vernon,GA,30445,32.185718,-82.586136
139214,2060900,20609,Brown College of Court Reporting,Atlanta,GA,30309,33.784536,-84.389224
139250,155800,1558,College of Coastal Georgia,Brunswick,GA,31520-3644,31.182741,-81.486086
139278,1048700,10487,West Georgia Technical College,Waco,GA,30182,33.691657,-85.183666
139287,3635300,36353,Carver Bible College,Atlanta,GA,30331,33.7236,-84.515091
139311,897600,8976,Clayton  State University,Morrow,GA,30260-0285,33.594079,-84.328174
139348,156000,1560,Columbia Theological Seminary,Decatur,GA,30030-4118,33.764108,-84.282978
139357,562400,5624,Columbus Technical College,Columbus,GA,31904-6572,32.505697,-84.979348
139366,156100,1561,Columbus State University,Columbus,GA,31907-5645,32.501556,-84.940796
139384,402400,4024,Georgia Northwestern Technical College,Rome,GA,30161,34.224673,-85.171361
139393,348400,3484,Covenant College,Lookout Mountain,GA,30750-4164,34.963327,-85.37496
139463,395600,3956,Dalton State College,Dalton,GA,30720-3797,34.77496,-85.00289
139506,1205100,12051,Pro Way Hair School,Stone Mountain,GA,30083-3254,33.801802,-84.205183
139579,1303900,13039,South University-Savannah,Savannah,GA,31406,31.999571,-81.105435
139621,1099700,10997,East Georgia State College,Swainsboro,GA,30401,32.59577,-82.308486
139630,156300,1563,Emmanuel College,Franklin Springs,GA,30639,34.282617,-83.146825
139658,156400,1564,Emory University,Atlanta,GA,30322,33.798836,-84.325782
139700,950700,9507,Georgia Highlands College,Rome,GA,30161-3897,34.169791,-85.207356
139719,156600,1566,Fort Valley State University,Fort Valley,GA,31030-4313,32.538163,-83.895548
139746,411700,4117,Grady Health System Professional Schools,Atlanta,GA,30303-3050,33.752007,-84.382393
139755,156900,1569,Georgia Institute of Technology-Main Campus,Atlanta,GA,30332-0530,33.773732,-84.396019
139764,157300,1573,Georgia Southwestern State University,Americus,GA,31709-4693,32.058198,-84.217755
139861,160200,1602,Georgia College and State University,Milledgeville,GA,31061,33.082787,-83.231962
139931,157200,1572,Georgia Southern University,Statesboro,GA,30460-8126,32.427756,-81.782201
139940,157400,1574,Georgia State University,Atlanta,GA,30303-3083,33.7527,-84.38667
139959,159800,1598,University of Georgia,Athens,GA,30602,33.956428,-83.374049
139968,157500,1575,Gordon State College,Barnesville,GA,30204,33.045208,-84.152548
139986,562100,5621,Southern Crescent Technical College,Griffin,GA,30223-2042,33.255438,-84.291662
139995,1077100,10771,Gupton Jones College of Funeral Service,Decatur,GA,30035-4022,33.710441,-84.179602
140003,2583000,25830,Gwinnett College-Lilburn,Lilburn,GA,30047-3447,33.901271,-84.121874
140012,2288400,22884,Gwinnett Technical College,Lawrenceville,GA,30043-5702,33.962763,-84.066224
140146,156800,1568,Interdenominational Theological Center,Atlanta,GA,30314-4143,33.754904,-84.410337
140164,157700,1577,Kennesaw State University,Kennesaw,GA,30144-5591,34.03629,-84.58083
140234,157800,1578,LaGrange College,Lagrange,GA,30240-2999,33.039713,-85.041394
140243,525400,5254,Lanier Technical College,Oakwood,GA,30566,34.236386,-83.864559
140252,2074800,20748,Life University,Marietta,GA,30060,33.932104,-84.514156
140331,562000,5620,Chattahoochee Technical College,Marietta,GA,30060,33.929093,-84.552492
140340,962106,9621,Herzing University-Atlanta,Atlanta,GA,30326,33.846627,-84.362635
140447,158000,1580,Mercer University,Macon,GA,31207,32.831709,-83.650114
140553,158200,1582,Morehouse College,Atlanta,GA,30314,33.74793,-84.415156
140562,2482100,24821,Morehouse School of Medicine,Atlanta,GA,30310-1495,33.742549,-84.411958
140599,525500,5255,Moultrie Technical College,Moultrie,GA,31788,31.198805,-83.76519
140678,561900,5619,North Georgia Technical College,Clarkesville,GA,30523,34.63853,-83.529592
140696,158600,1586,Oglethorpe University,Atlanta,GA,30319-2797,33.875939,-84.334756
140720,158700,1587,Paine College,Augusta,GA,30901-3182,33.469259,-81.991199
140818,158800,1588,Piedmont College,Demorest,GA,30535-0010,34.56663,-83.543216
140827,2217200,22172,Portfolio Center,Atlanta,GA,30309,33.811882,-84.39589
140872,158900,1589,Reinhardt University,Waleska,GA,30183-2981,34.318874,-84.554657
140942,561800,5618,Savannah Technical College,Savannah,GA,31405-5594,32.023211,-81.114753
140951,2141500,21415,Savannah College of Art and Design,Savannah,GA,31402-3146,32.072966,-81.093905
140960,159000,1590,Savannah State University,Savannah,GA,31404-5310,32.024781,-81.063377
140988,159100,1591,Shorter University,Rome,GA,30165,34.258192,-85.196213
141006,561700,5617,South Georgia Technical College,Americus,GA,31709,32.116663,-84.188321
141015,2285500,22855,The Creative Circus,Atlanta,GA,30324,33.813156,-84.361989
141060,159400,1594,Spelman College,Atlanta,GA,30314-4399,33.74519,-84.410118
141097,157000,1570,Southern Polytechnic State University,Marietta,GA,30060-2896,33.938992,-84.519276
141158,561500,5615,Southwest Georgia Technical College,Thomasville,GA,31792-9960,30.863799,-83.9514
141167,155500,1555,Thomas University,Thomasville,GA,31792,30.813954,-83.981478
141185,159600,1596,Toccoa Falls College,Toccoa Falls,GA,30598,34.59554,-83.353462
141237,159700,1597,Truett-McConnell College,Cleveland,GA,30528,34.594437,-83.745972
141255,525600,5256,Wiregrass Georgia Technical College,Valdosta,GA,31602-0929,30.889221,-83.35381
141264,159900,1599,Valdosta State University,Valdosta,GA,31698,30.849236,-83.289925
141325,160000,1600,Wesleyan College,Macon,GA,31210-4462,32.874648,-83.717186
141334,160100,1601,University of West Georgia,Carrollton,GA,30118-0001,33.574421,-85.099007
141361,160400,1604,Young Harris College,Young Harris,GA,30582,34.93316,-83.847765
141468,723401,7234,Heald College-Honolulu,Honolulu,HI,96814,21.293024,-157.841404
141486,160500,1605,Chaminade University of Honolulu,Honolulu,HI,96816-1578,21.290274,-157.807642
141565,161100,1611,University of Hawaii at Hilo,Hilo,HI,96720-4091,19.701854,-155.081329
141574,161000,1610,University of Hawaii at Manoa,Honolulu,HI,96822-2217,21.292648,-157.816607
141608,2139500,21395,Hawaii Institute of Hair Design,Honolulu,HI,96817-5195,21.313505,-157.861958
141644,727900,7279,Hawaii Pacific University,Honolulu,HI,96813,21.31027,-157.859401
141680,161200,1612,Honolulu Community College,Honolulu,HI,96817-4505,21.319946,-157.87488
141796,161300,1613,Kapiolani Community College,Honolulu,HI,96816-4421,21.271357,-157.800413
141802,161400,1614,Kauai Community College,Lihue,HI,96766-9500,21.969509,-159.395966
141811,454900,4549,Leeward Community College,Pearl City,HI,96782-3366,21.392802,-157.985099
141839,161500,1615,University of Hawaii Maui College,Kahului,HI,96732-1617,20.890561,-156.479854
141848,2100300,21003,Med-Assist School of Hawaii Inc,Honolulu,HI,96813,21.30557,-157.861531
141936,3072500,30725,World Medicine Institute,Honolulu,HI,96821,21.296439,-157.754719
141945,3017800,30178,Travel Institute of the Pacific,Honolulu,HI,96814,21.298959,-157.841529
141981,2107800,21078,University of Hawaii-West Oahu,Kapolei,HI,96707-4507,21.354897,-158.061825
141990,1122000,11220,Windward Community College,Kaneohe,HI,96744-3528,21.40922,-157.813213
142054,2218000,22180,Carrington College-Boise,Boise,ID,83704-8742,43.615935,-116.260571
142090,2234500,22345,Boise Bible College,Boise,ID,83714-1220,43.657437,-116.290607
142115,161600,1616,Boise State University,Boise,ID,83725,43.604403,-116.205789
142179,1113300,11133,Eastern Idaho Technical College,Idaho Falls,ID,83404-5788,43.4818,-111.984645
142276,162000,1620,Idaho State University,Pocatello,ID,83209,42.864108,-112.429084
142285,162600,1626,University of Idaho,Moscow,ID,83844-2282,46.726894,-117.024296
142294,161700,1617,The College of Idaho,Caldwell,ID,83605-4432,43.652653,-116.676838
142328,162100,1621,Lewis-Clark State College,Lewiston,ID,83501-2698,46.410034,-117.026371
142337,732915,7329,ITT Technical Institute-Boise,Boise,ID,83713-1529,43.660091,-116.335509
142407,987300,9873,Aveda Institute-Twin Falls,Twin Falls,ID,83301,42.593695,-114.461693
142416,2275800,22758,Mr Leon's School of Hair Design-Moscow,Moscow,ID,83843,46.729394,-117.001352
142443,162300,1623,North Idaho College,Coeur d'Alene,ID,83814-2199,47.676416,-116.798399
142461,162400,1624,Northwest Nazarene University,Nampa,ID,83686-5897,43.563181,-116.564792
142489,2314000,23140,The School of Hairstyling,Chubbuck,ID,83202,42.920006,-112.465046
142522,162500,1625,Brigham Young University-Idaho,Rexburg,ID,83460-1690,43.815384,-111.784728
142559,161900,1619,College of Southern Idaho,Twin Falls,ID,83301,42.58148,-114.474373
142832,2068100,20681,Adler University,Chicago,IL,60602,41.88232,-87.628651
142869,832800,8328,Alvareitas College of Cosmetology-Edwardsville,Edwardsville,IL,62025,38.80781,-89.953398
142878,2349400,23494,Alvareitas College of Cosmetology-Godfrey,Godfrey,IL,62035-4150,38.927728,-90.191309
142887,162800,1628,American Academy of Art,Chicago,IL,60604-4302,41.877824,-87.624396
143048,175300,1753,School of the Art Institute of Chicago,Chicago,IL,60603,41.879646,-87.621411
143084,163300,1633,Augustana College,Rock Island,IL,61201-2296,41.500326,-90.552402
143118,163400,1634,Aurora University,Aurora,IL,60506-4892,41.754465,-88.349469
143181,2317302,23173,Tricoci University of Beauty Culture-Urbana,Urbana,IL,61801,40.117722,-88.205839
143215,163600,1636,Southwestern Illinois College,Belleville,IL,62221-5899,38.516406,-89.924466
143233,163700,1637,Bethany Theological Seminary,Richmond,IN,47374-4019,39.8265,-84.9099
143279,163800,1638,Black Hawk College,Moline,IL,61265-5899,41.475983,-90.449497
143288,163900,1639,Blackburn College,Carlinville,IL,62626,39.288298,-89.872248
143297,621400,6214,Blessing Rieman College of Nursing,Quincy,IL,62305-7005,39.935896,-91.398548
143303,621402,6214,Blessing Hospital School of Radiologic Technology,Quincy,IL,62305-7005,39.936595,-91.398901
143358,164100,1641,Bradley University,Peoria,IL,61625-0001,40.697605,-89.61462
143376,3065300,30653,Paul Mitchell the School-Bradley,Bourbonnais,IL,60914,41.17436,-87.848231
143464,3078400,30784,Cameo Beauty Academy,Oak Lawn,IL,60453,41.716251,-87.740865
143473,2202600,22026,Cannella School of Hair Design-Villa Park,Villa Park,IL,60181,41.901717,-87.939652
143482,959500,9595,Cannella School of Hair Design-Chicago,Chicago,IL,60617-4303,41.731437,-87.551315
143491,2349500,23495,Cannella School of Hair Design-Chicago,Chicago,IL,60632-2549,41.815699,-87.701239
143516,2295500,22955,Cannella School of Hair Design-Elgin,Elgin,IL,60120,42.036421,-88.286781
143543,945918,9459,Empire Beauty School-Hanover Park,Hanover Park,IL,60133-5421,41.970117,-88.114475
143552,1308800,13088,Capri Beauty College,Oak Forest,IL,60452,41.603863,-87.771567
143613,726500,7265,Carl Sandburg College,Galesburg,IL,61401,40.98128,-90.408203
143659,923200,9232,Catholic Theological Union at Chicago,Chicago,IL,60615-5698,41.798059,-87.585772
143695,2312300,23123,La James International College-East Moline,East Moline,IL,61244,41.490281,-90.451978
143853,165700,1657,Midwestern University-Downers Grove,Downers Grove,IL,60515-5514,41.828376,-88.000989
143978,2155307,21553,The Chicago School of Professional Psychology at Chicago,Chicago,IL,60654,41.887903,-87.633933
144005,169400,1694,Chicago State University,Chicago,IL,60628-1598,41.718813,-87.610344
144014,166100,1661,Chicago Theological Seminary,Chicago,IL,60637,41.786056,-87.591249
144050,177400,1774,University of Chicago,Chicago,IL,60637,41.78917,-87.601196
144157,165400,1654,City Colleges of Chicago-Kennedy-King College,Chicago,IL,60621-2709,41.780253,-87.643425
144166,165000,1650,City Colleges of Chicago-Malcolm X College,Chicago,IL,60612-3197,41.876942,-87.674126
144175,976700,9767,City Colleges of Chicago-Olive-Harvey College,Chicago,IL,60628-1696,41.709997,-87.589249
144184,164800,1648,City Colleges of Chicago-Harry S Truman College,Chicago,IL,60640-6063,41.964502,-87.659107
144193,164900,1649,City Colleges of Chicago-Richard J Daley College,Chicago,IL,60652-1299,41.755955,-87.723981
144209,165200,1652,City Colleges of Chicago-Harold Washington College,Chicago,IL,60601-2449,41.886067,-87.626596
144218,165500,1655,City Colleges of Chicago-Wilbur Wright College,Chicago,IL,60634-1500,41.958774,-87.787868
144281,166500,1665,Columbia College-Chicago,Chicago,IL,60605-1996,41.873589,-87.624554
144351,166600,1666,Concordia University-Chicago,River Forest,IL,60305-1499,41.898574,-87.810009
144467,2352200,23522,Le Cordon Bleu College of Culinary Arts-Chicago,Chicago,IL,60610,41.898323,-87.63744
144485,754900,7549,Coyne College,Chicago,IL,60607-1300,41.887808,-87.649026
144564,166900,1669,Danville Area Community College,Danville,IL,61832-5118,40.128466,-87.586347
144573,2317300,23173,Tricoci University of Beauty Culture-Danville,Danville,IL,61832,40.075994,-87.634654
144740,167100,1671,DePaul University,Chicago,IL,60604,41.923332,-87.654116
144795,2150600,21506,Cosmetology & Spa Academy,Crystal Lake,IL,60014,42.24918,-88.294087
144865,665600,6656,College of DuPage,Glen Ellyn,IL,60137-6599,41.841577,-88.071635
144883,2168600,21686,East-West University,Chicago,IL,60605,41.871309,-87.624793
144892,167400,1674,Eastern Illinois University,Charleston,IL,61920,39.483017,-88.175505
144944,167500,1675,Elgin Community College,Elgin,IL,60123-7193,42.018066,-88.32194
144962,167600,1676,Elmhurst College,Elmhurst,IL,60126-3096,41.899215,-87.946096
144971,167800,1678,Eureka College,Eureka,IL,61530,40.713042,-89.268952
145099,2584900,25849,First Institute Inc,Crystal Lake,IL,60014,42.212921,-88.33789
145239,2522800,25228,Fox College,Bedford Park,IL,60638,41.723498,-87.726962
145275,168200,1682,Garrett-Evangelical Theological Seminary,Evanston,IL,60201-3298,42.053318,-87.676721
145309,456000,4560,Gem City College,Quincy,IL,62301,39.926572,-91.404548
145336,914500,9145,Governors State University,University Park,IL,60484,41.448603,-87.717012
145354,893800,8938,Graham Hospital School of Nursing,Canton,IL,61520-2497,40.55327,-90.038475
145372,168400,1684,Greenville College,Greenville,IL,62246,38.894751,-89.409178
145406,2261200,22612,Hair Professionals Academy of Cosmetology,West Dundee,IL,60118,42.094047,-88.289103
145424,2332200,23322,Hair Professionals Career College,Sycamore,IL,60178,41.961956,-88.716692
145433,2262100,22621,Hair Professionals School of Cosmetology,Oswego,IL,60543,41.682461,-88.365535
145460,2055200,20552,Harrington College of Design,Chicago,IL,60606,41.877227,-87.624659
145497,168500,1685,Hebrew Theological College,Skokie,IL,60077,42.011055,-87.761119
145521,168100,1681,Highland Community College,Freeport,IL,61032-9341,42.283315,-89.673597
145558,165900,1659,Rosalind Franklin University of Medicine and Science,North Chicago,IL,60064-3095,42.300069,-87.859632
145600,177600,1776,University of Illinois at Chicago,Chicago,IL,60607,41.872651,-87.651145
145619,176700,1767,Benedictine University,Lisle,IL,60532-0900,41.776395,-88.095948
145628,168900,1689,Illinois College of Optometry,Chicago,IL,60616-3878,41.835447,-87.623016
145637,177500,1775,University of Illinois at Urbana-Champaign,Champaign,IL,61820-5711,40.108864,-88.230309
145646,169600,1696,Illinois Wesleyan University,Bloomington,IL,61702-2900,40.491522,-88.990622
145682,675300,6753,Illinois Central College,East Peoria,IL,61635-0001,40.706247,-89.525411
145691,168800,1688,Illinois College,Jacksonville,IL,62650-2299,39.730827,-90.246256
145707,174200,1742,Olney Central College,Olney,IL,62450,38.733906,-88.095764
145725,169100,1691,Illinois Institute of Technology,Chicago,IL,60616,41.833801,-87.628346
145770,2179936,21799,Argosy University-Chicago,Chicago,IL,60601,41.886006,-87.623772
145813,169200,1692,Illinois State University,Normal,IL,61790-1000,40.509724,-88.99234
145831,170500,1705,Illinois Valley Community College,Oglesby,IL,61348-9692,41.30652,-89.102036
145886,2573700,25737,Institute for Clinical Social Work,Chicago,IL,60605-1229,41.87631,-87.627181
146010,2160300,21603,Sanford-Brown College-Chicago,Chicago,IL,60602-3300,41.882044,-87.627626
146205,807600,8076,John A Logan College,Carterville,IL,62918-2500,37.747453,-89.09021
146241,169800,1698,The John Marshall Law School,Chicago,IL,60604,41.877966,-87.628567
146278,1281300,12813,John Wood Community College,Quincy,IL,62305-8736,39.913722,-91.339565
146296,169900,1699,Joliet Junior College,Joliet,IL,60431-8938,41.500535,-88.180985
146339,170000,1700,Judson University,Elgin,IL,60123-1498,42.05896,-88.289708
146348,769000,7690,Kankakee Community College,Kankakee,IL,60901,41.098226,-87.851737
146366,170100,1701,Kaskaskia College,Centralia,IL,62801,38.562292,-89.191723
146393,170300,1703,Kendall College,Chicago,IL,60642,41.898756,-87.648936
146418,768400,7684,Kishwaukee College,Malta,IL,60150-9699,41.938805,-88.879739
146427,170400,1704,Knox College,Galesburg,IL,61401-9999,40.941829,-90.370316
146454,947500,9475,Educators of Beauty College of Cosmetology-La Salle,La Salle,IL,61301,41.328509,-89.098246
146472,769400,7694,College of Lake County,Grayslake,IL,60030-1198,42.355881,-88.012392
146481,170600,1706,Lake Forest College,Lake Forest,IL,60045-2399,42.250456,-87.830777
146490,2319200,23192,Lake Forest Graduate School of Management,Lake Forest,IL,60045,42.243432,-87.893204
146506,764400,7644,Lake Land College,Mattoon,IL,61938,39.43287,-88.379229
146533,1050100,10501,Lakeview College of Nursing,Danville,IL,61832,40.137179,-87.644452
146603,1002000,10020,Lewis and Clark Community College,Godfrey,IL,62035,38.952408,-90.195552
146612,170700,1707,Lewis University,Romeoville,IL,60446-2200,41.605432,-88.079032
146667,170800,1708,Lincoln Christian University,Lincoln,IL,62656-2111,40.148897,-89.34582
146676,170900,1709,Lincoln College,Lincoln,IL,62656,40.157141,-89.360552
146685,717000,7170,Lincoln Land Community College,Springfield,IL,62794-9256,39.721211,-89.611249
146700,730307,7303,Lincoln College of Technology-Melrose Park,Melrose Park,IL,60160-1605,41.906487,-87.831253
146719,171000,1710,Loyola University Chicago,Chicago,IL,60660,41.999161,-87.657399
146728,171200,1712,Lutheran School of Theology at Chicago,Chicago,IL,60615-5134,41.795064,-87.599577
146755,622500,6225,Trinity College of Nursing & Health Sciences,Rock Island,IL,61201-5317,41.48559,-90.57091
146791,2332839,23328,CET-Chicago,Chicago,IL,60612,41.869752,-87.70911
146807,2228100,22281,Steven Papageorge Hair Academy,Chicago,IL,60657,41.939864,-87.657262
146816,171600,1716,MacCormac College,Chicago,IL,60602-4405,41.875337,-87.626373
146825,171700,1717,MacMurray College,Jacksonville,IL,62650-2590,39.730226,-90.22175
146977,172100,1721,McCormick Theological Seminary,Chicago,IL,60615,41.793514,-87.5961
